     2.11           OBSERVATION DATA    G (GPS)             RINEX VERSION / TYPE
MAKERINEX 1.141     BKG/GOWETTZELL+ITU  2011-07-01 00:10    PGM / RUN BY / DATE
ISTA                                                        MARKER NAME
20807M001                                                   MARKER NUMBER
AUTOMATIC           BKG/GOWETTZELL+ITU                      OBSERVER / AGENCY
LP00839             ASHTECH Z-XII3      1K00-1D04           REC # / TYPE / VERS
CR13556             ASH700936D_M    SNOW                    ANT # / TYPE
  4208830.7150  2334850.1024  4171267.0925                  APPROX POSITION XYZ
         .0610         .0000         .0000                  ANTENNA: DELTA H/E/N
     1     1                                                WAVELENGTH FACT L1/2
     9    C1    P1    P2    L1    L2    D1    D2    S1    S2# / TYPES OF OBSERV
    30.000                                                  INTERVAL
  2011     6    30     0     0   30.0000000     GPS         TIME OF FIRST OBS
  2011     6    30    23    59   30.0000000     GPS         TIME OF LAST OBS
     0                                                      RCV CLOCK OFFS APPL
                                                            END OF HEADER
 11  6 30  0  0 30.0000000  0  9 19 32 18  3  6 11 22 14 24
  20972431.839    20972431.068    20972433.886   -26324209.272 9 -20501911.259 9
      -860.587        -670.595         217.000         217.000
  22615303.319    22615302.996    22615308.266   -14202463.098 9 -10779726.159 9
      2674.670        2084.142         181.000         182.000
  25023400.743    25023400.506    25023403.914    -4794588.781 9  -3723653.405 9
     -2683.346       -2090.919         135.000         140.000
  22356563.925    22356563.943    22356568.733   -17125417.924 9 -13303926.722 9
     -3056.996       -2382.087         184.000         184.000
  23012305.724    23012305.624    23012310.378   -14273908.950 9 -11107629.656 9
     -3035.275       -2365.143         174.000         175.000
  21657166.799    21657166.196    21657169.725   -18986671.150 9 -14776253.413 9
      2592.368        2020.026         195.000         195.000
  22097646.723    22097645.716    22097648.321   -20877846.744 9 -15979509.648 9
     -2092.626       -1630.621         198.000         198.000
  21279137.714    21279137.233    21279141.251   -20511846.046 9 -15970833.875 9
       256.722         200.038         206.000         206.000
  22775494.091    22775494.570    22775498.859   -12380602.462 9  -9631713.521 9
      2858.459        2227.356         175.000         177.000
 11  6 30  0  1  0.0000000  0  9 19 32 18  3  6 11 22 14 24
  20977394.179    20977393.495    20977396.673   -26298130.125 9 -20481589.847 9
      -878.154        -684.279         217.000         217.000
  22600059.439    22600059.043    22600063.870   -14282570.049 9 -10842147.171 9
      2665.649        2077.127         181.000         183.000
  25038717.314    25038716.871    25038722.262    -4714097.317 9  -3660932.839 9
     -2682.819       -2090.508         136.000         141.000
  22374038.061    22374037.725    22374042.498   -17033590.723 9 -13232373.074 9
     -3064.930       -2388.262         183.000         184.000
  23029652.620    23029652.268    23029657.971   -14182751.032 9 -11036597.523 9
     -3041.786       -2370.208         174.000         176.000
  21642392.968    21642392.322    21642396.304   -19064306.445 9 -14836748.433 9
      2583.179        2012.857         195.000         195.000
  22109607.404    22109606.466    22109609.288   -20814993.279 9 -15930532.929 9
     -2097.724       -1634.597         198.000         198.000
  21277726.581    21277726.124    21277730.382   -20519261.731 9 -15976612.328 9
       237.499         185.060         206.000         206.000
  22759184.005    22759183.932    22759189.697   -12466310.872 9  -9698499.281 9
      2855.260        2224.883         176.000         177.000
 11  6 30  0  1 30.0000000  0  9 19 32 18  3  6 11 22 14 24
  20982456.964    20982456.311    20982459.368   -26271525.904 9 -20460859.284 9
      -894.754        -697.215         216.000         216.000
  22584867.054    22584866.278    22584872.329   -14362407.326 9 -10904358.039 9
      2657.567        2070.833         182.000         183.000
  25054029.600    25054030.908    25054033.960    -4633626.605 9  -3598228.425 9
     -2681.203       -2089.257         136.000         142.000
  22391557.378    22391556.468    22391561.600   -16941527.876 9 -13160635.792 9
     -3071.871       -2393.683         183.000         184.000
  23047036.061    23047035.627    23047041.076   -14091401.442 9 -10965416.047 9
     -3047.168       -2374.432         174.000         174.000
  21627671.607    21627671.132    21627675.034   -19141666.607 9 -14897029.070 9
      2574.877        2006.384         195.000         195.000
  22121596.661    22121595.616    22121598.195   -20751989.152 9 -15881438.812 9
     -2101.837       -1637.793         198.000         197.000
  21276424.757    21276424.324    21276428.448   -20526101.736 9 -15981942.207 9
       219.197         170.800         206.000         205.000
  22742892.982    22742893.356    22742898.027   -12551923.848 9  -9765210.678 9
      2852.978        2223.087         177.000         178.000
 11  6 30  0  2  0.0000000  0  9 19 32 18  3  6 11 22 14 24
  20987621.667    20987620.697    20987623.361   -26244387.876 9 -20439712.770 9
      -913.604        -711.900         216.000         217.000
  22569727.611    22569727.146    22569732.604   -14441964.958 9 -10966351.000 9
      2647.137        2062.708         182.000         184.000
  25069342.241    25069341.791    25069346.461    -4553167.699 9  -3535533.233 9
     -2681.898       -2089.790         137.000         143.000
  22409121.843    22409121.624    22409126.617   -16849222.580 9 -13088709.596 9
     -3080.979       -2400.763         183.000         183.000
  23064456.777    23064455.816    23064461.629   -13999853.035 9 -10894079.652 9
     -3054.891       -2380.427         174.000         175.000
  21613005.198    21613004.867    21613008.618   -19218740.189 9 -14957086.406 9
      2564.202        1998.077         195.000         195.000
  22133615.770    22133615.216    22133618.150   -20688826.026 9 -15832220.796 9
     -2108.171       -1642.734         197.000         197.000
  21275234.259    21275233.881    21275238.264   -20532356.654 9 -15986816.176 9
       198.611         154.759         205.000         205.000
  22726621.311    22726620.947    22726626.346   -12637431.061 9  -9831839.661 9
      2848.345        2219.477         178.000         178.000
 11  6 30  0  2 30.0000000  0  9 19 32 18  3  6 11 22 14 24
  20992887.602    20992886.678    20992889.058   -26216716.715 9 -20418150.837 9
      -931.702        -725.995         217.000         217.000
  22554641.493    22554640.656    22554646.167   -14521242.098 9 -11028125.394 9
      2637.461        2055.163         183.000         183.000
  25084649.779    25084648.145    25084652.556    -4472721.253 9  -3472847.750 9
     -2681.730       -2089.660         138.000         143.000
  22426732.948    22426732.628    22426737.074   -16756677.341 9 -13016596.430 9
     -3089.291       -2407.227         182.000         182.000
  23081915.907    23081915.523    23081920.689   -13908107.903 9 -10822589.960 9
     -3061.753       -2385.775         173.000         174.000
  21598393.801    21598393.268    21598396.680   -19295524.984 9 -15016918.713 9
      2554.217        1990.306         196.000         196.000
  22145665.289    22145664.614    22145667.410   -20625504.995 9 -15782879.749 9
     -2113.762       -1647.074         197.000         196.000
  21274155.417    21274155.046    21274159.409   -20538026.271 9 -15991234.050 9
       178.774         139.310         205.000         205.000
  22710370.566    22710370.284    22710376.067   -12722831.061 9  -9898385.079 9
      2844.407        2216.421         178.000         179.000
 11  6 30  0  3  0.0000000  0  9 19 32 18  3  6 11 22 14 24
  20998258.004    20998256.911    20998259.246   -26188495.372 9 -20396160.186 9
      -949.324        -739.729         217.000         216.000
  22539612.772    22539612.004    22539617.705   -14600220.394 9 -11089666.924 9
      2628.179        2047.928         183.000         184.000
  25099959.028    25099957.736    25099963.230    -4392270.074 9  -3410158.555 9
     -2681.230       -2089.269         138.000         143.000
  22444391.537    22444391.250    22444396.526   -16663877.083 9 -12944284.547 9
     -3097.014       -2413.245         181.000         181.000
  23099414.664    23099414.373    23099420.002   -13816150.717 9 -10750935.027 9
     -3068.052       -2390.671         173.000         174.000
  21583840.957    21583840.741    21583844.064   -19372001.257 9 -15076510.616 9
      2544.596        1982.811         197.000         198.000
  22157748.626    22157747.687    22157750.150   -20562009.620 9 -15733402.840 9
     -2118.843       -1651.043         196.000         196.000
  21273191.124    21273190.926    21273195.256   -20543092.806 9 -15995181.998 9
       159.392         124.203         205.000         205.000
  22694143.229    22694142.545    22694148.696   -12808104.659 9  -9964832.016 9
      2840.876        2213.677         178.000         180.000
 11  6 30  0  3 30.0000000  0 10 19 32 18 28  3  6 11 22 14 24
  21003727.187    21003726.270    21003729.218   -26159751.148 9 -20373762.096 9
      -966.961        -753.473         216.000         216.000
  22524635.601    22524635.329    22524640.655   -14678925.555 9 -11150995.613 9
      2618.840        2040.659         183.000         183.000
  25115264.629    25115263.899    25115268.669    -4311840.971 9  -3347486.591 9
     -2680.694       -2088.854         137.000         143.000
  25620490.042    25620490.022    25620494.999      -62088.017 9    -44314.635 9
       815.675         634.797          74.000         140.000
  22462094.259    22462094.235    22462098.992   -16570850.960 9 -12871796.668 9
     -3104.724       -2419.253         180.000         180.000
  23116948.940    23116948.863    23116952.539   -13724010.046 9 -10679137.111 9
     -3074.366       -2395.617         172.000         172.000
  21569342.066    21569341.567    21569345.266   -19448193.352 9 -15135881.078 9
      2534.888        1975.242         198.000         198.000
  22169859.688    22169858.416    22169861.095   -20498367.632 9 -15683811.691 9
     -2123.932       -1655.005         197.000         197.000
  21272336.838    21272336.581    21272340.760   -20547583.172 9 -15998680.984 9
       139.961         109.059         205.000         205.000
  22677934.989    22677934.341    22677940.988   -12893277.059 9 -10031200.081 9
      2837.281        2210.893         178.000         178.000
 11  6 30  0  4  0.0000000  0 10 19 32 18 28  3  6 11 22 14 24
  21009297.927    21009296.792    21009300.321   -26130475.033 9 -20350949.534 9
      -983.888        -766.667         215.000         215.000
  22509712.221    22509712.205    22509716.991   -14757347.429 9 -11212103.560 9
      2610.187        2033.899         183.000         184.000
  25130566.935    25130565.877    25130570.360    -4231425.348 9  -3284825.106 9
     -2679.461       -2087.890         138.000         142.000
  25615878.181    25615877.194    25615883.076      -86323.011 9    -63199.117 9
       800.809         624.006         132.000         147.000
  22479840.956    22479840.571    22479844.996   -16477591.653 9 -12799127.080 9
     -3111.662       -2424.689         180.000         181.000
  23134519.191    23134518.041    23134523.308   -13631678.719 9 -10607190.647 9
     -3079.919       -2399.913         172.000         173.000
  21554899.193    21554899.166    21554902.370   -19524089.886 9 -15195021.236 9
      2525.754        1968.122         197.000         197.000
  22181999.649    22181998.994    22182001.260   -20434570.137 9 -15634099.371 9
     -2128.331       -1658.436         197.000         197.000
  21271593.958    21271593.610    21271597.423   -20551487.623 9 -16001723.423 9
       121.203          94.452         205.000         205.000
  22661748.179    22661747.904    22661753.987   -12978337.451 9 -10097480.883 9
      2834.289        2208.540         178.000         178.000
 11  6 30  0  4 30.0000000  0 10 19 32 18 28  3  6 11 22 14 24
  21014962.171    21014961.061    21014964.431   -26100709.997 9 -20327755.992 9
     -1001.254        -780.198         215.000         215.000
  22494835.710    22494834.911    22494840.253   -14835527.522 9 -11273023.098 9
      2601.025        2026.769         184.000         185.000
  25145858.643    25145857.943    25145862.945    -4151065.704 9  -3222207.215 9
     -2678.741       -2087.335         134.000         139.000
  25611347.424    25611347.115    25611351.408     -110131.011 9    -81750.805 9
       785.560         612.127         141.000         148.000
  22497623.768    22497623.107    22497628.127   -16384143.739 9 -12726310.521 9
     -3119.017       -2430.420         180.000         181.000
  23152117.067    23152116.224    23152120.501   -13539200.857 9 -10535129.993 9
     -3085.806       -2404.509         171.000         172.000
  21540505.064    21540504.730    21540508.706   -19599730.480 9 -15253961.943 9
      2516.133        1960.625         196.000         196.000
  22194160.881    22194160.301    22194162.564   -20370660.723 9 -15584299.835 9
     -2133.131       -1662.181         197.000         197.000
  21270954.436    21270954.236    21270958.178   -20554848.156 9 -16004342.030 9
       101.993          79.478         205.000         205.000
  22645575.648    22645575.553    22645580.669   -13063326.521 9 -10163706.111 9
      2830.846        2205.854         178.000         178.000
 11  6 30  0  5  0.0000000  0 10 19 32 18 28  3  6 11 22 14 24
  21020733.729    21020732.637    21020735.311   -26070382.908 9 -20304124.501 9
     -1020.786        -795.415         215.000         215.000
  22480018.227    22480017.698    22480023.094   -14913391.296 9 -11333696.159 9
      2589.650        2017.913         184.000         185.000
  25161154.231    25161154.237    25161157.921    -4070688.574 9  -3159575.712 9
     -2680.082       -2088.372         134.000         140.000
  25606912.035    25606912.239    25606917.806     -133438.050 9    -99912.118 9
       767.977         598.419         138.000         142.000
  22515455.834    22515455.158    22515460.665   -16290435.858 9 -12653291.394 9
     -3128.457       -2437.760         180.000         181.000
  23169756.382    23169756.185    23169761.247   -13446505.111 9 -10462899.561 9
     -3093.873       -2410.821         170.000         170.000
  21526174.012    21526174.021    21526177.467   -19675039.537 9 -15312644.320 9
      2504.238        1951.353         196.000         197.000
  22206357.541    22206356.769    22206359.599   -20306566.898 9 -15534356.605 9
     -2140.068       -1667.583         196.000         196.000
  21270432.451    21270432.184    21270436.436   -20557591.093 9 -16006479.384 9
        80.615          62.821         205.000         205.000
  22629431.021    22629430.727    22629435.557   -13148169.195 9 -10229817.264 9
      2825.113        2201.394         179.000         180.000
 11  6 30  0  5 30.0000000  0 10 19 32 18 28  3  6 11 22 14 24
  21026609.351    21026608.418    21026610.483   -26039508.923 9 -20280066.861 9
     -1037.646        -808.563         216.000         216.000
  22465258.782    22465258.413    22465263.360   -14990952.339 9 -11394133.315 9
      2580.923        2011.101         184.000         184.000
  25176449.533    25176450.210    25176453.329    -3990308.576 9  -3096941.992 9
     -2678.759       -2087.344         133.000         139.000
  25602570.015    25602569.573    25602574.293     -156257.905 9   -117693.795 9
       753.127         586.854         136.000         140.000
  22533333.957    22533333.885    22533338.653   -16196485.214 9 -12580083.090 9
     -3135.169       -2443.012         180.000         181.000
  23187434.163    23187434.216    23187438.832   -13353607.730 9 -10390512.013 9
     -3099.194       -2414.960         168.000         168.000
  21511904.439    21511904.007    21511907.342   -19750029.115 9 -15371077.755 9
      2494.894        1944.065         197.000         198.000
  22218586.316    22218585.442    22218588.238   -20242303.638 9 -15484281.348 9
     -2144.307       -1670.893         196.000         197.000
  21270025.240    21270024.984    21270029.032   -20559730.886 9 -16008146.757 9
        61.864          48.202         205.000         205.000
  22613310.926    22613310.475    22613316.441   -13232878.254 9 -10295824.292 9
      2822.000        2198.955         179.000         180.000
 11  6 30  0  6  0.0000000  0 10 19 32 18 28  3  6 11 22 14 24
  21032581.611    21032580.709    21032582.786   -26008124.615 9 -20255611.571 9
     -1054.263        -821.508         216.000         216.000
  22450550.304    22450549.845    22450555.041   -15068246.199 9 -11454362.286 9
      2572.387        2004.458         183.000         183.000
  25191739.133    25191739.693    25191743.488    -3909962.734 9  -3034334.860 9
     -2677.227       -2086.151         133.000         138.000
  25598312.661    25598313.424    25598319.258     -178626.353 9   -135123.825 9
       738.411         575.383         125.000         130.000
  22551250.876    22551251.103    22551256.491   -16102330.480 9 -12506715.762 9
     -3141.499       -2447.898         180.000         181.000
  23205142.415    23205142.357    23205146.987   -13260547.271 9 -10317997.394 9
     -3104.201       -2418.857         167.000         169.000
  21497689.146    21497688.926    21497691.614   -19824733.202 9 -15429288.739 9
      2485.730        1936.929         199.000         200.000
  22230840.598    22230839.851    22230842.256   -20177908.196 9 -15434103.092 9
     -2148.318       -1674.024         196.000         196.000
  21269725.867    21269725.502    21269729.838   -20561303.760 9 -16009372.379 9
        43.361          33.786         205.000         205.000
  22597210.133    22597210.040    22597215.735   -13317488.566 9 -10361754.396 9
      2819.059        2196.669         179.000         180.000
 11  6 30  0  6 30.0000000  0 10 19 32 18 28  3  6 11 22 14 24
  21038652.301    21038651.369    21038654.107   -25976220.409 9 -20230751.164 9
     -1073.151        -836.223         216.000         215.000
  22435894.563    22435893.621    22435899.062   -15145261.797 9 -11514374.426 9
      2561.535        1996.005         183.000         183.000
  25207023.983    25207023.401    25207028.217    -3829640.770 9  -2971746.363 9
     -2678.095       -2086.827         131.000         136.000
  25594142.866    25594143.156    25594149.389     -200532.671 9   -152193.714 9
       721.497         562.203         119.000         126.000
  22569208.870    22569207.729    22569213.242   -16007963.440 9 -12433182.999 9
     -3150.117       -2454.640         181.000         181.000
  23222884.312    23222883.284    23222887.753   -13167315.458 9 -10245349.248 9
     -3111.450       -2424.505         166.000         167.000
  21483529.873    21483529.546    21483532.735   -19899139.621 9 -15487267.778 9
      2474.206        1927.948         200.000         200.000
  22243122.094    22243120.941    22243123.077   -20113371.292 9 -15383814.608 9
     -2154.576       -1678.890         196.000         195.000
  21269536.704    21269536.157    21269540.327   -20562299.548 9 -16010148.328 9
        22.544          17.567         205.000         205.000
  22581130.585    22581130.739    22581135.892   -13401988.315 9 -10427598.325 9
      2813.779        2192.550         180.000         181.000
 11  6 30  0  7  0.0000000  0 10 19 32 18 28  3  6 11 22 14 24
  21044826.221    21044825.434    21044828.533   -25943773.726 9 -20205468.044 9
     -1089.894        -849.268         215.000         215.000
  22421296.345    22421296.224    22421301.159   -15221974.290 9 -11574150.371 9
      2552.733        1989.143         183.000         183.000
  25222309.491    25222309.980    25222313.303    -3749319.306 9  -2909158.204 9
     -2676.639       -2085.689         130.000         136.000
  25590067.537    25590072.159    25590077.335     -221952.536 9   -168884.521 9
       706.639         550.615         108.000         119.000
  22587210.222    22587210.034    22587215.116   -15913362.708 9 -12359468.154 9
     -3156.465       -2459.576         180.000         181.000
  23240661.691    23240661.108    23240666.588   -13073890.453 9 -10172550.571 9
     -3116.492       -2428.436         165.000         165.000
  21469432.292    21469432.154    21469435.398   -19973222.054 9 -15544994.344 9
      2464.694        1920.546         200.000         200.000
  22255434.270    22255433.137    22255435.516   -20048670.084 9 -15333398.094 9
     -2158.746       -1682.141         195.000         195.000
  21269461.765    21269461.114    21269465.353   -20562694.212 9 -16010455.864 9
         3.833           2.990         205.000         205.000
  22565077.204    22565076.648    22565081.936   -13486351.883 9 -10493336.146 9
      2810.533        2190.026         179.000         180.000
 11  6 30  0  7 30.0000000  0 10 19 32 18 28  3  6 11 22 14 24
  21051097.589    21051096.747    21051100.166   -25910815.912 9 -20179786.634 9
     -1107.146        -862.713         214.000         214.000
  22406750.633    22406750.080    22406754.831   -15298414.008 9 -11633713.753 9
      2543.417        1981.866         183.000         183.000
  25237587.675    25237585.457    25237589.846    -3669029.539 9  -2846594.749 9
     -2675.830       -2085.062         127.000         134.000
  25586077.560    25586080.012    25586094.720     -242916.202 9   -185219.808 9
       691.240         538.638          96.000         114.000
  22605250.020    22605250.116    22605255.128   -15818561.396 9 -12285596.998 9
     -3163.401       -2464.989         180.000         181.000
  23258470.802    23258469.351    23258475.364   -12980305.079 9 -10099626.939 9
     -3122.094       -2432.787         165.000         166.000
  21455391.593    21455391.159    21455394.191   -20047008.954 9 -15602490.622 9
      2454.569        1912.646         200.000         200.000
  22267771.704    22267770.919    22267772.764   -19983835.955 9 -15282878.001 9
     -2163.372       -1685.736         196.000         195.000
  21269495.031    21269494.623    21269498.606   -20562518.798 9 -16010319.182 9
       -15.403         -12.004         205.000         205.000
  22549043.183    22549042.848    22549048.617   -13570608.924 9 -10558990.948 9
      2806.723        2187.055         179.000         179.000
 11  6 30  0  8  0.0000000  0 10 19 32 18 28  3  6 11 22 14 24
  21057468.134    21057467.362    21057470.638   -25877339.027 9 -20153700.754 9
     -1125.452        -876.976         213.000         214.000
  22392257.909    22392257.109    22392263.125   -15374571.775 9 -11693057.432 9
      2533.001        1973.758         183.000         183.000
  25252861.336    25252864.462    25252864.584    -3588763.598 9  -2784049.890 9
     -2676.003       -2085.188         127.000         134.000
  25582180.820    25582180.494    25582186.083     -263414.980 9   -201192.966 9
       674.721         525.746          93.000         114.000
  22623329.531    22623328.964    22623334.547   -15723553.893 9 -12211565.179 9
     -3171.223       -2471.078         180.000         180.000
  23276310.492    23276311.415    23276315.495   -12886553.510 9 -10026573.807 9
     -3128.571       -2437.838         165.000         166.000
  21441408.067    21441407.758    21441411.470   -20120489.823 9 -15659748.438 9
      2443.348        1903.903         200.000         200.000
  22280135.292    22280134.690    22280137.230   -19918861.824 9 -15232248.820 9
     -2169.046       -1690.166         195.000         195.000
  21269638.335    21269637.870    21269641.924   -20561765.237 9 -16009731.997 9
       -35.669         -27.799         205.000         205.000
  22533030.964    22533031.774    22533036.530   -13654749.811 9 -10624555.258 9
      2801.832        2183.241         178.000         179.000
 11  6 30  0  8 30.0000000  0 10 19 32 18 28  3  6 11 22 14 24
  21063947.379    21063946.495    21063949.344   -25843292.546 9 -20127171.032 9
     -1143.857        -891.323         214.000         214.000
  22377829.553    22377828.741    22377833.312   -15450395.568 9 -11752140.886 9
      2522.398        1965.496         183.000         184.000
  25268141.482    25268139.787    25268141.499    -3508470.319 9  -2721483.689 9
     -2676.482       -2085.575         125.000         132.000
  25578376.345    25578377.601    25578333.141     -283397.701 9     -3210.870 9
       658.093         512.796          74.000          74.000
  22641457.758    22641457.424    22641461.890   -15628290.992 9 -12137334.360 9
     -3179.213       -2477.311         180.000         181.000
  23294192.172    23294191.859    23294197.408   -12792586.254 9  -9953352.605 9
     -3135.192       -2443.002         165.000         166.000
  21427493.293    21427493.208    21427496.497   -20193611.347 9 -15716726.242 9
      2431.897        1894.975         200.000         199.000
  22292535.572    22292535.052    22292537.563   -19853697.142 9 -15181471.155 9
     -2174.792       -1694.647         195.000         195.000
  21269901.437    21269901.075    21269905.299   -20560382.106 9 -16008654.242 9
       -56.104         -43.724         205.000         204.000
  22517051.834    22517051.541    22517057.682   -13738721.399 9 -10689987.638 9
      2796.710        2179.260         178.000         179.000
 11  6 30  0  9  0.0000000  0 10 19 32 18 28  3  6 11 22 14 24
  21070520.765    21070519.936    21070522.582   -25808750.135 9 -20100254.880 9
     -1159.218        -903.288         214.000         214.000
  22363450.519    22363449.672    22363454.209   -15525957.238 9 -11811020.079 9
      2514.785        1959.562         183.000         183.000
  25283411.733    25283410.616    25283411.991    -3428222.782 9  -2658953.166 9
     -2673.762       -2083.453         122.000         130.000
  25574658.438    25574659.579    25574674.368     -302935.999 9    -18453.993 9
       644.277         503.746          74.000         107.000
  22659619.712    22659619.124    22659624.389   -15532847.983 9 -12062963.199 9
     -3183.944       -2480.999         180.000         181.000
  23312100.824    23312100.263    23312104.376   -12698478.008 9  -9880021.549 9
     -3138.682       -2445.715         165.000         166.000
  21413633.764    21413633.264    21413637.369   -20266443.828 9 -15773478.815 9
      2423.355        1888.328         199.000         199.000
  22304958.167    22304957.444    22304960.132   -19788415.974 9 -15130602.720 9
     -2177.572       -1696.811         195.000         195.000
  21270270.441    21270270.322    21270274.300   -20558442.207 9 -16007142.639 9
       -73.504         -57.278         205.000         205.000
  22501091.480    22501091.480    22501097.547   -13822594.762 9 -10755343.490 9
      2794.540        2177.542         179.000         179.000
 11  6 30  0  9 30.0000000  0  9 19 32 18  3  6 11 22 14 24
  21077188.801    21077187.676    21077190.628   -25773710.274 9 -20072951.100 9
     -1175.917        -916.299         214.000         214.000
  22349122.063    22349121.570    22349125.760   -15601253.702 9 -11869692.626 9
      2505.846        1952.612         183.000         184.000
  25298672.890    25298672.586    25298676.220    -3348018.463 9  -2596456.259 9
     -2672.382       -2082.378         117.000         127.000
  22677816.670    22677816.290    22677820.489   -15437224.816 9 -11988451.646 9
     -3190.087       -2485.784         180.000         182.000
  23330035.384    23330034.879    23330041.090   -12604228.641 9  -9806580.529 9
     -3143.515       -2449.508         166.000         167.000
  21399829.802    21399830.033    21399833.388   -20338982.699 9 -15830002.608 9
      2413.395        1880.565         199.000         200.000
  22317403.746    22317402.724    22317405.358   -19723016.272 9 -15079641.927 9
     -2181.620       -1699.963         194.000         194.000
  21270746.260    21270745.838    21270749.950   -20555943.146 9 -16005195.316 9
       -92.253         -71.892         205.000         204.000
  22485150.283    22485149.607    22485156.239   -13906366.085 9 -10820619.824 9
      2790.996        2174.814         179.000         180.000
 11  6 30  0 10  0.0000000  0 10 19 32 18  3  6 11 20 22 14 24
  21083951.270    21083950.190    21083953.230   -25738171.590 9 -20045258.624 9
     -1194.221        -930.565         214.000         213.000
  22334844.635    22334844.522    22334848.496   -15676282.263 9 -11928156.412 9
      2495.198        1944.299         183.000         184.000
  25313930.158    25313930.260    25313928.532    -3267856.172 9  -2533992.160 9
     -2672.771       -2082.678         114.000         126.000
  22696047.386    22696047.161    22696051.955   -15341421.614 9 -11913799.809 9
     -3197.700       -2491.714         181.000         182.000
  23347997.271    23347998.075    23348001.824   -12509838.289 9  -9733029.669 9
     -3149.919       -2454.491         166.000         167.000
  21386083.455    21386083.110    21386086.386   -20411223.663 9 -15886294.270 9
      2401.762        1871.502         200.000         200.000
  24835267.336    24835269.984    24835271.294     -253474.583 9   -178729.445 9
      3356.683        2615.599          74.000         141.000
  22329871.364    22329870.812    22329873.605   -19657496.928 9 -15028587.898 9
     -2187.230       -1704.345         194.000         195.000
  21271328.443    21271328.213    21271332.143   -20552883.225 9 -16002810.952 9
      -112.634         -87.765         204.000         204.000
  22469228.810    22469229.163    22469234.295   -13990031.988 9 -10885814.008 9
      2785.768        2170.722         179.000         179.000
 11  6 30  0 10 30.0000000  0 10 19 32 18  3  6 11 20 22 14 24
  21090813.602    21090812.587    21090815.760   -25702109.191 9 -20017158.058 9
     -1209.988        -942.846         213.000         213.000
  22320622.651    22320622.354    22320627.500   -15751016.807 9 -11986391.096 9
      2487.032        1937.944         183.000         183.000
  25329180.136    25329177.675    25329183.189    -3187710.886 9  -2471541.304 9
     -2670.422       -2080.851         115.000         126.000
  22714317.035    22714316.353    22714321.423   -15245415.589 9 -11838989.926 9
     -3202.737       -2495.636         181.000         182.000
  23365990.726    23365991.659    23365996.722   -12415283.559 9  -9659350.720 9
     -3153.581       -2457.327         166.000         168.000
  21372398.049    21372397.646    21372401.455   -20483139.218 9 -15942332.359 9
      2392.541        1864.323         200.000         200.000
  24816106.693    24816105.494    24816113.469     -354150.042 9   -257177.832 9
      3354.919        2614.222         128.000         143.000
  22342367.568    22342365.971    22342368.993   -19591833.848 9 -14977421.880 9
     -2190.373       -1706.789         194.000         195.000
  21272022.229    21272021.949    21272026.138   -20549237.382 9 -15999970.029 9
      -130.486        -101.678         205.000         205.000
  22453332.804    22453333.056    22453338.500   -14073565.394 9 -10950904.958 9
      2783.039        2168.598         179.000         181.000
 11  6 30  0 11  0.0000000  0 10 19 32 18  3  6 11 20 22 14 24
  21097774.816    21097773.815    21097776.864   -25665528.460 9 -19988653.595 9
     -1227.694        -956.650         213.000         213.000
  22306456.333    22306456.364    22306460.819   -15825460.609 9 -12044399.247 9
      2476.929        1930.076         183.000         183.000
  25344425.817    25344425.838    25344427.201    -3107586.287 9  -2409106.573 9
     -2670.171       -2080.666         112.000         124.000
  22732623.537    22732622.978    22732628.142   -15149213.392 9 -11764027.194 9
     -3209.729       -2501.096         181.000         181.000
  23384013.779    23384013.891    23384019.662   -12320570.605 9  -9585548.469 9
     -3159.258       -2461.772         165.000         167.000
  21358774.295    21358774.039    21358777.821   -20554731.112 9 -15998118.241 9
      2381.276        1855.538         200.000         200.000
  24796968.822    24796969.652    24796974.072     -454725.168 9   -335548.103 9
      3351.104        2611.251         136.000         142.000
  22354888.848    22354888.210    22354890.669   -19526031.557 9 -14926147.376 9
     -2195.428       -1710.726         194.000         194.000
  21272826.791    21272826.514    21272830.620   -20545009.806 9 -15996675.802 9
      -150.325        -117.142         205.000         205.000
  22437461.903    22437461.826    22437467.920   -14156968.765 9 -11015894.580 9
      2778.213        2164.845         179.000         181.000
 11  6 30  0 11 30.0000000  0 10 19 32 18  3  6 11 20 22 14 24
  21104836.772    21104835.908    21104838.468   -25628418.606 9 -19959736.832 9
     -1246.201        -971.062         213.000         213.000
  22292347.895    22292347.504    22292352.016   -15899601.303 9 -12102171.196 9
      2465.892        1921.476         183.000         183.000
  25359674.425    25359670.715    25359675.830    -3027471.454 9  -2346679.390 9
     -2670.713       -2081.078         107.000         123.000
  22750969.146    22750969.167    22750974.448   -15052805.769 9 -11688904.394 9
     -3217.369       -2507.026         180.000         180.000
  23402069.192    23402069.677    23402075.144   -12225689.924 9  -9511615.530 9
     -3165.690       -2466.762         165.000         167.000
  21345215.441    21345215.220    21345218.405   -20625985.303 9 -16053640.978 9
      2369.077        1846.031         200.000         201.000
  24777850.870    24777852.616    24777857.649     -555187.745 9   -413830.651 9
      3346.467        2607.640         136.000         142.000
  22367438.962    22367437.796    22367440.246   -19460079.506 9 -14874756.174 9
     -2201.267       -1715.272         193.000         193.000
  21273744.115    21273743.719    21273747.802   -20540189.070 9 -15992919.377 9
      -170.995        -133.237         205.000         205.000
  22421618.245    22421618.238    22421623.635   -14240228.986 9 -11080772.652 9
      2772.494        2160.385         180.000         181.000
 11  6 30  0 12  0.0000000  0 10 19 32 18  3  6 11 20 22 14 24
  21111996.608    21111995.789    21111998.579   -25590793.421 9 -19930418.513 9
     -1262.402        -983.691         213.000         213.000
  22278295.442    22278294.492    22278299.266   -15973451.347 9 -12159716.675 9
      2457.161        1914.685         182.000         183.000
  25374911.364    25374910.750    25374916.878    -2947379.479 9  -2284270.066 9
     -2668.932       -2079.676         107.000         121.000
  22769350.993    22769351.455    22769356.093   -14956207.950 9 -11613633.370 9
     -3222.734       -2511.213         180.000         180.000
  23420153.652    23420153.189    23420158.458   -12130656.607 9  -9437563.656 9
     -3169.792       -2469.958         165.000         166.000
  21331718.676    21331718.531    21331721.449   -20696912.736 9 -16108909.100 9
      2359.117        1838.270         201.000         202.000
  24758752.961    24758753.252    24758757.150     -655549.737 9   -492034.803 9
      3344.083        2605.789         135.000         139.000
  22380014.902    22380014.343    22380017.115   -19393991.428 9 -14823258.975 9
     -2204.843       -1718.058         193.000         193.000
  21274772.077    21274771.655    21274775.378   -20534788.493 9 -15988711.132 9
      -189.359        -147.552         205.000         205.000
  22405798.999    22405798.282    22405805.670   -14323357.333 9 -11145547.963 9
      2769.074        2157.724         180.000         181.000
 11  6 30  0 12 30.0000000  0 10 19 32 18  3  6 11 20 22 14 24
  21119250.395    21119249.444    21119252.315   -25552673.880 9 -19900714.982 9
     -1279.068        -996.676         213.000         212.000
  22264293.727    22264293.183    22264297.344   -16047030.071 9 -12217050.733 9
      2447.926        1907.474         182.000         183.000
  25390146.537    25390148.429    25390148.939    -2867330.865 9  -2221894.566 9
     -2667.664       -2078.701         105.000         119.000
  22787764.938    22787764.132    22787769.515   -14859442.288 9 -11538231.572 9
     -3228.479       -2515.693         179.000         179.000
  23438262.466    23438262.016    23438268.262   -12035492.770 9  -9363410.093 9
     -3174.359       -2473.508         165.000         166.000
  21318280.224    21318279.935    21318283.188   -20767531.492 9 -16163936.692 9
      2348.580        1830.062         202.000         202.000
  24739671.174    24739671.034    24739677.043     -755829.826 9   -570175.235 9
      3341.166        2603.519         134.000         139.000
  22392612.610    22392611.932    22392615.139   -19327788.414 9 -14771672.224 9
     -2208.846       -1721.174         192.000         192.000
  21275906.026    21275905.811    21275909.555   -20528828.575 9 -15984067.034 9
      -208.194        -162.234         205.000         205.000
  22390002.140    22390002.126    22390007.861   -14406372.350 9 -11210234.972 9
      2765.059        2154.596         180.000         182.000
 11  6 30  0 13  0.0000000  0 10 19 32 18  3  6 11 20 22 14 24
  21126603.327    21126602.333    21126605.430   -25514032.567 9 -19870604.872 9
     -1296.599       -1010.336         212.000         212.000
  22250349.415    22250348.302    22250353.282   -16120308.410 9 -12274150.723 9
      2437.696        1899.501         183.000         183.000
  25405375.095    25405371.021    25405380.593    -2787297.725 9  -2159530.974 9
     -2667.448       -2078.550         104.000         119.000
  22806216.002    22806215.189    22806220.662   -14762482.801 9 -11462678.743 9
     -3235.108       -2520.863         178.000         177.000
  23456401.693    23456400.715    23456407.245   -11940172.370 9  -9289134.516 9
     -3179.696       -2477.690         164.000         166.000
  21304906.506    21304905.977    21304909.574   -20837810.775 9 -16218699.756 9
      2337.079        1821.101         202.000         202.000
  24720608.732    24720608.784    24720612.219     -855998.575 9   -648228.788 9
      3337.272        2600.459         131.000         138.000
  22405237.772    22405237.220    22405239.769   -19261442.926 9 -14719974.448 9
     -2213.759       -1725.002         192.000         192.000
  21277151.959    21277151.612    21277155.588   -20522281.043 9 -15978965.054 9
      -227.917        -177.588         205.000         205.000
  22374232.091    22374232.036    22374237.136   -14489244.041 9 -11274810.300 9
      2760.130        2150.751         181.000         182.000
 11  6 30  0 13 30.0000000  0 10 19 32 18  3  6 11 20 22 14 24
  21134051.424    21134050.685    21134054.077   -25474891.386 9 -19840105.256 9
     -1313.196       -1023.267         212.000         212.000
  22236458.164    22236457.304    22236462.458   -16193306.944 9 -12331032.688 9
      2428.464        1892.308         183.000         184.000
  25420597.134    25420594.267    25420625.604    -2707301.504 9      7717.711 9
     -2666.045       -2077.443          74.000          74.000
  22824698.482    22824698.663    22824703.242   -14665353.431 9 -11386993.529 9
     -3240.592       -2525.143         177.000         178.000
  23474566.411    23474566.505    23474570.697   -11844718.499 9  -9214754.928 9
     -3184.003       -2481.040         164.000         166.000
  21291593.653    21291593.459    21291597.049   -20907769.619 9 -16273213.130 9
      2326.441        1812.813         202.000         202.000
  24701565.676    24701564.661    24701572.173     -956076.459 9   -726211.409 9
      3334.200        2598.077         133.000         139.000
  22417885.874    22417885.083    22417888.245   -19194977.040 9 -14668182.863 9
     -2217.709       -1728.084         191.000         191.000
  21278505.434    21278505.235    21278509.183   -20515167.665 9 -15973422.160 9
      -246.747        -192.270         205.000         205.000
  22358485.888    22358485.026    22358491.218   -14571992.110 9 -11339289.297 9
      2755.996        2147.528         182.000         183.000
 11  6 30  0 14  0.0000000  0 10 19 32 18  3  6 11 20 22 14 24
  21141603.057    21141601.930    21141605.277   -25435209.923 9 -19809184.639 9
     -1332.012       -1037.929         212.000         212.000
  22222627.956    22222627.576    22222632.686   -16265983.288 9 -12387663.574 9
      2416.856        1883.273         184.000         185.000
  25435821.367    25435818.207    25435831.625    -2627298.631 9     70033.741 9
     -2667.109       -2075.466          74.000         100.000
  22843221.823    22843221.790    22843226.458   -14568014.665 9 -11311145.142 9
     -3248.472       -2531.285         177.000         177.000
  23492763.298    23492763.512    23492768.751   -11749091.644 9  -9140240.564 9
     -3190.640       -2486.218         164.000         166.000
  21278350.487    21278349.826    21278353.967   -20977364.238 9 -16327442.689 9
      2313.410        1802.653         202.000         202.000
  24682545.468    24682546.999    24682551.882    -1056020.622 9   -804090.056 9
      3328.877        2593.932         131.000         138.000
  22430564.842    22430563.786    22430566.957   -19128349.768 9 -14616265.526 9
     -2223.920       -1732.928         191.000         190.000
  21279974.503    21279974.325    21279978.425   -20507446.954 9 -15967406.021 9
      -267.803        -208.677         205.000         205.000
  22342771.861    22342771.712    22342776.729   -14654573.140 9 -11403638.135 9
      2749.620        2142.563         182.000         183.000
 11  6 30  0 14 30.0000000  0 10 19 32 18  3  6 11 20 22 14 24
  21149253.337    21149252.330    21149255.337   -25395007.774 9 -19777858.294 9
     -1347.557       -1050.042         212.000         211.000
  22208856.079    22208855.928    22208860.267   -16338355.303 9 -12444057.334 9
      2408.509        1876.758         185.000         186.000
  25451042.636    25451039.218    25451057.171    -2547311.626 9    132276.463 9
     -2665.084       -2073.859          74.000         111.000
  22861780.841    22861780.525    22861785.083   -14470487.649 9 -11235150.076 9
     -3252.821       -2534.672         176.000         177.000
  23510989.300    23510989.793    23510994.421   -11653312.544 9  -9065607.563 9
     -3193.848       -2488.705         164.000         166.000
  21265172.564    21265172.605    21265176.389   -21046610.536 9 -16381400.831 9
      2303.539        1794.963         202.000         202.000
  24663549.576    24663548.638    24663553.629    -1155848.990 9   -881878.398 9
      3326.870        2592.372         130.000         137.000
  22443270.546    22443269.493    22443272.636   -19061580.755 9 -14564237.731 9
     -2226.835       -1735.191         190.000         190.000
  21281555.867    21281555.460    21281559.583   -20499137.815 9 -15960931.367 9
      -285.606        -222.546         205.000         205.000
  22327084.786    22327085.231    22327090.515   -14737004.323 9 -11467870.202 9
      2746.332        2140.011         183.000         184.000
 11  6 30  0 15  0.0000000  0 10 19 32 18  3  6 11 20 22 14 24
  21157000.691    21156999.819    21157002.870   -25354293.524 9 -19746132.911 9
     -1365.791       -1064.253         211.000         211.000
  22195140.613    22195140.319    22195145.149   -16410429.887 9 -12500219.337 9
      2397.435        1868.138         186.000         186.000
  25466258.990    25466257.247    25466273.933    -2467346.687 9      2585.452 9
     -2663.831       -2075.689          74.000          74.000
  22880374.078    22880373.228    22880377.283   -14372782.039 9 -11159015.830 9
     -3259.948       -2540.221         176.000         176.000
  23529243.056    23529243.576    23529248.065   -11557390.707 9  -8990863.330 9
     -3199.735       -2493.300         163.000         165.000
  21252061.082    21252060.638    21252064.453   -21115513.865 9 -16435091.729 9
      2290.912        1785.126         202.000         202.000
  24644573.807    24644573.593    24644578.523    -1255568.081 9   -959581.564 9
      3322.018        2588.583         132.000         139.000
  22456002.174    22456000.776    22456003.629   -18994678.222 9 -14512105.891 9
     -2232.448       -1739.576         190.000         191.000
  21283247.571    21283247.455    21283251.347   -20490248.139 9 -15954004.342 9
      -306.116        -238.537         205.000         205.000
  22311426.447    22311426.088    22311432.337   -14819291.383 9 -11531989.973 9
      2740.335        2135.327         183.000         184.000
 11  6 30  0 15 30.0000000  0  9 19 32  3  6 11 20 22 14 24
  21164843.199    21164842.453    21164845.446   -25313081.129 9 -19714019.360 9
     -1382.225       -1077.059         211.000         211.000
  22181479.581    22181478.857    22181483.998   -16482219.732 9 -12556159.455 9
      2388.034        1860.808         186.000         187.000
  22898997.448    22898996.400    22899001.917   -14274913.439 9 -11082754.578 9
     -3265.196       -2544.309         175.000         176.000
  23547520.987    23547520.690    23547525.692   -11461341.608 9  -8916019.940 9
     -3203.807       -2496.464         163.000         165.000
  21239012.477    21239012.160    21239015.569   -21184085.728 9 -16488524.336 9
      2279.970        1776.595         202.000         202.000
  24625618.063    24625616.184    24625622.315    -1355189.635 9  -1037208.706 9
      3318.824        2586.099         132.000         138.000
  22468755.811    22468754.670    22468757.624   -18927656.113 9 -14459880.879 9
     -2236.246       -1742.531         190.000         190.000
  21285046.867    21285046.684    21285050.532   -20480791.733 9 -15946635.697 9
      -324.848        -253.129         205.000         205.000
  22295792.800    22295792.627    22295797.973   -14901446.129 9 -11596006.645 9
      2736.059        2131.989         183.000         185.000
 11  6 30  0 16  0.0000000  0  9 19 32  3  6 11 20 22 14 24
  21172778.684    21172777.808    21172780.905   -25271379.792 9 -19681524.824 9
     -1398.084       -1089.415         211.000         211.000
  22167871.226    22167870.532    22167875.608   -16553732.066 9 -12611883.345 9
      2379.221        1853.935         186.000         187.000
  22917649.855    22917649.328    22917654.129   -14176892.366 9 -11006374.537 9
     -3269.792       -2547.874         174.000         175.000
  23565820.488    23565820.426    23565824.155   -11365175.335 9  -8841085.262 9
     -3207.266       -2499.180         162.000         163.000
  21226025.582    21226025.181    21226028.963   -21252331.533 9 -16541702.877 9
      2269.491        1768.435         202.000         202.000
  24606677.528    24606676.148    24606679.951    -1454720.762 9  -1114765.357 9
      3316.270        2584.108         134.000         140.000
  22481530.821    22481530.287    22481532.464   -18860523.379 9 -14407569.670 9
     -2239.506       -1745.068         190.000         190.000
  21286952.599    21286952.246    21286956.403   -20470777.080 9 -15938832.062 9
      -343.039        -267.306         205.000         204.000
  22280183.066    22280183.130    22280188.680   -14983474.942 9 -11659925.191 9
      2732.272        2129.057         184.000         185.000
 11  6 30  0 16 30.0000000  0  9 19 32  3  6 11 20 22 14 24
  21180807.204    21180806.361    21180809.318   -25229189.944 9 -19648649.619 9
     -1415.226       -1102.769         211.000         211.000
  22154315.735    22154314.886    22154320.825   -16624965.957 9 -12667390.265 9
      2369.033        1846.003         187.000         187.000
  22936330.770    22936331.630    22936335.837   -14078721.008 9 -10929877.374 9
     -3275.615       -2552.422         174.000         174.000
  23584141.912    23584142.214    23584146.972   -11268893.520 9  -8766060.521 9
     -3211.928       -2502.795         161.000         164.000
  21213101.421    21213101.059    21213104.435   -21320248.858 9 -16594625.458 9
      2257.626        1759.193         202.000         203.000
  24587755.254    24587753.360    24587759.424    -1554160.311 9  -1192250.697 9
      3312.287        2581.007         133.000         140.000
  22494326.435    22494325.641    22494327.898   -18793280.400 9 -14355172.547 9
     -2244.050       -1748.607         189.000         189.000
  21288964.609    21288964.240    21288968.254   -20460204.309 9 -15930593.532 9
      -362.501        -282.466         204.000         204.000
  22264598.083    22264598.015    22264603.167   -15065375.730 9 -11723743.973 9
      2727.093        2125.007         185.000         186.000
 11  6 30  0 17  0.0000000  0  9 19 32  3  6 11 20 22 14 24
  21188937.631    21188936.720    21188940.014   -25186464.338 9 -19615356.943 9
     -1432.011       -1115.853         210.000         211.000
  22140822.375    22140821.916    22140827.949   -16695872.009 9 -12722641.727 9
      2359.156        1838.307         187.000         188.000
  22955049.967    22955049.947    22955054.387   -13980352.753 9 -10853226.772 9
     -3281.166       -2556.765         173.000         174.000
  23602495.223    23602494.199    23602499.723   -11172449.658 9  -8690909.546 9
     -3216.267       -2506.182         160.000         161.000
  21200249.194    21200248.931    21200252.708   -21387786.792 9 -16647252.408 9
      2245.985        1750.121         202.000         203.000
  24568856.832    24568856.470    24568861.052    -1653458.638 9  -1269625.983 9
      3308.638        2578.155         130.000         136.000
  22507152.415    22507152.043    22507154.162   -18725879.138 9 -14302652.087 9
     -2248.275       -1751.903         189.000         189.000
  21291091.691    21291091.472    21291095.533   -20449025.180 9 -15921882.519 9
      -381.675        -297.411         204.000         204.000
  22249046.453    22249046.922    22249051.983   -15147098.096 9 -11787423.723 9
      2722.204        2121.195         186.000         188.000
 11  6 30  0 17 30.0000000  0  9 19 32  3  6 11 20 22 14 24
  21197158.791    21197157.806    21197160.835   -25143261.346 9 -19581692.275 9
     -1447.367       -1127.821         210.000         210.000
  22127381.395    22127380.986    22127386.380   -16766507.056 9 -12777682.019 9
      2350.655        1831.672         188.000         189.000
  22973795.217    22973794.976    22973799.780   -13881847.549 9 -10776469.476 9
     -3285.098       -2559.819         172.000         173.000
  23620867.109    23620867.284    23620872.243   -11075903.290 9  -8615678.687 9
     -3219.084       -2508.371         159.000         161.000
  21187458.909    21187458.668    21187462.212   -21455000.309 9 -16699626.565 9
      2235.701        1742.097         202.000         203.000
  24549978.272    24549978.692    24549983.035    -1752672.210 9  -1346935.221 9
      3306.410        2576.426         129.000         137.000
  22519998.152    22519997.244    22519999.353   -18658378.291 9 -14250054.030 9
     -2251.026       -1754.053         190.000         190.000
  21293323.593    21293323.499    21293326.969   -20437297.401 9 -15912743.982 9
      -399.402        -311.224         204.000         204.000
  22233519.081    22233519.174    22233523.939   -15228697.694 9 -11851007.822 9
      2718.598        2118.386         187.000         187.000
 11  6 30  0 18  0.0000000  0  9 19 32  3  6 11 20 22 14 24
  21205472.643    21205471.549    21205474.732   -25099572.844 9 -19547649.293 9
     -1465.024       -1141.580         210.000         210.000
  22113993.301    22113992.728    22113998.006   -16836861.412 9 -12832503.588 9
      2339.823        1823.248         189.000         190.000
  22992566.955    22992567.037    22992571.804   -13783198.731 9 -10699600.285 9
     -3291.353       -2564.696         172.000         173.000
  23639260.509    23639259.721    23639265.788   -10979247.430 9  -8540362.483 9
     -3224.197       -2512.358         158.000         160.000
  21174732.754    21174732.217    21174735.811   -21521878.289 9 -16751739.264 9
      2222.975        1732.187         203.000         203.000
  24531115.461    24531114.800    24531119.512    -1851790.880 9  -1424170.542 9
      3301.737        2572.775         131.000         139.000
  22532863.651    22532862.479    22532864.925   -18590768.938 9 -14197371.429 9
     -2256.108       -1758.007         190.000         190.000
  21295661.504    21295661.012    21295664.921   -20425012.540 9 -15903171.358 9
      -419.444        -326.842         204.000         204.000
  22218016.810    22218016.083    22218021.651   -15310163.884 9 -11914487.954 9
      2712.624        2113.733         186.000         186.000
 11  6 30  0 18 30.0000000  0  9 19 32  3  6 11 20 22 14 24
  21213884.878    21213883.956    21213887.153   -25055365.408 9 -19513201.946 9
     -1482.762       -1155.401         210.000         210.000
  22100665.524    22100664.821    22100670.451   -16906899.811 9 -12887078.947 9
      2328.834        1814.671         189.000         190.000
  23011372.835    23011372.860    23011377.011   -13684374.011 9 -10622594.015 9
     -3297.680       -2569.615         172.000         173.000
  23657680.866    23657679.046    23657685.511   -10882449.409 9  -8464935.525 9
     -3229.340       -2516.380         157.000         160.000
  21162077.005    21162076.727    21162080.416   -21588383.789 9 -16803561.723 9
      2210.078        1722.137         204.000         204.000
  24512280.122    24512279.060    24512284.496    -1950778.980 9  -1501304.131 9
      3296.909        2569.019         138.000         145.000
  22545755.304    22545754.852    22545757.894   -18523017.557 9 -14144578.158 9
     -2261.277       -1762.047         190.000         189.000
  21298111.428    21298111.245    21298114.928   -20412136.478 9 -15893138.060 9
      -439.587        -342.538         203.000         203.000
  22202546.639    22202546.266    22202551.262   -15391460.192 9 -11977835.722 9
      2706.509        2108.961         186.000         186.000
 11  6 30  0 19  0.0000000  0  9 19 32  3  6 11 20 22 14 24
  21222390.908    21222389.867    21222392.682   -25010667.761 9 -19478372.618 9
     -1496.546       -1166.137         210.000         210.000
  22087392.667    22087391.906    22087397.862   -16976649.344 9 -12941429.223 9
      2321.660        1809.081         190.000         190.000
  23030206.492    23030205.585    23030211.160   -13585403.147 9 -10545473.862 9
     -3299.927       -2571.370         171.000         172.000
  23676121.480    23676121.626    23676127.129   -10785539.027 9  -8389421.024 9
     -3230.561       -2517.318         157.000         158.000
  21149487.397    21149487.302    21149490.602   -21654542.421 9 -16855113.894 9
      2201.004        1715.070         204.000         205.000
  24493462.968    24493462.727    24493467.210    -2049662.941 9  -1578356.569 9
      3295.913        2568.248         142.000         146.000
  22558670.120    22558669.572    22558671.805   -18455152.351 9 -14091696.187 9
     -2262.533       -1763.020         190.000         190.000
  21300668.749    21300668.482    21300672.621   -20398697.449 9 -15882666.084 9
      -455.830        -355.192         203.000         203.000
  22187103.732    22187103.320    22187108.524   -15472612.596 9 -12041071.353 9
      2704.191        2107.164         186.000         186.000
 11  6 30  0 19 30.0000000  0  9 19 32  3  6 11 20 22 14 24
  21230982.989    21230982.218    21230985.238   -24965514.620 9 -19443188.357 9
     -1513.267       -1179.167         210.000         210.000
  22074168.458    22074167.852    22074173.411   -17046142.703 9 -12995579.893 9
      2311.601        1801.255         190.000         190.000
  23049060.950    23049060.905    23049065.008   -13486321.898 9 -10468267.723 9
     -3305.138       -2575.426         171.000         172.000
  23694578.233    23694577.780    23694582.131   -10688551.656 9  -8313846.516 9
     -3234.656       -2520.504         157.000         158.000
  21136957.981    21136957.611    21136961.454   -21720385.257 9 -16906419.992 9
      2188.853        1705.600         204.000         204.000
  24474658.824    24474658.331    24474663.277    -2148475.515 9  -1655353.337 9
      3291.886        2565.103         141.000         146.000
  22571599.419    22571598.668    22571601.487   -18387207.516 9 -14038752.162 9
     -2266.755       -1766.301         189.000         188.000
  21303326.482    21303326.630    21303330.522   -20384729.589 9 -15871782.030 9
      -475.004        -370.132         203.000         203.000
  22171681.894    22171681.365    22171687.574   -15553653.038 9 -12104219.747 9
      2698.852        2103.005         186.000         187.000
 11  6 30  0 20  0.0000000  0  9 19 32  3  6 11 20 22 14 24
  21239677.840    21239676.904    21239679.944   -24919823.385 9 -19407584.797 9
     -1532.403       -1194.089         210.000         210.000
  22061009.068    22061008.243    22061013.576   -17115295.995 9 -13049465.584 9
      2299.039        1791.455         190.000         190.000
  23067951.941    23067951.493    23067955.614   -13387049.463 9 -10390912.591 9
     -3312.647       -2581.285         170.000         171.000
  23713064.709    23713063.494    23713068.622   -10591406.178 9  -8238148.791 9
     -3241.057       -2525.500         156.000         157.000
  21124505.048    21124504.832    21124507.946   -21785826.641 9 -16957413.264 9
      2174.262        1694.223         205.000         205.000
  24455885.701    24455885.131    24455890.575    -2247132.210 9  -1732228.633 9
      3285.550        2560.164         143.000         147.000
  22584559.875    22584559.205    22584561.580   -18319100.410 9 -13985681.700 9
     -2273.373       -1771.468         188.000         189.000
  21306101.341    21306100.886    21306104.801   -20370150.090 9 -15860421.382 9
      -496.560        -386.937         203.000         203.000
  22156297.909    22156297.988    22156303.245   -15634496.426 9 -12167214.580 9
      2691.066        2096.934         186.000         187.000
 11  6 30  0 20 30.0000000  0  9 19 32  3  6 11 20 22 14 24
  21248469.510    21248468.527    21248471.309   -24873623.823 9 -19371585.140 9
     -1547.704       -1206.003         210.000         210.000
  22047909.018    22047908.164    22047914.109   -17184136.920 9 -13103107.876 9
      2290.240        1784.595         190.000         190.000
  23086873.541    23086873.767    23086877.927   -13287616.578 9 -10313432.433 9
     -3316.363       -2584.185         170.000         170.000
  23731574.495    23731574.408    23731578.912   -10494133.002 9  -8162351.595 9
     -3243.684       -2527.543         156.000         159.000
  21112123.291    21112123.028    21112126.376   -21850892.541 9 -17008113.956 9
      2163.313        1685.700         205.000         205.000
  24437135.371    24437135.386    24437140.305    -2345660.212 9  -1809003.645 9
      3282.865        2558.072         142.000         145.000
  22597546.073    22597544.872    22597547.811   -18250860.287 9 -13932507.581 9
     -2276.141       -1773.617         189.000         190.000
  21308986.461    21308986.240    21308990.143   -20354987.582 9 -15848606.437 9
      -514.403        -400.829         203.000         203.000
  22140946.096    22140946.045    22140951.744   -15715169.401 9 -12230076.627 9
      2686.985        2093.750         187.000         187.000
 11  6 30  0 21  0.0000000  0  9 19 32  3  6 11 20 22 14 24
  21257351.628    21257350.797    21257353.492   -24826947.802 9 -19335214.218 9
     -1563.470       -1218.285         210.000         210.000
  22034862.540    22034861.872    22034867.873   -17252695.331 9 -13156530.025 9
      2280.896        1777.315         190.000         190.000
  23105818.848    23105818.153    23105824.406   -13188056.170 9 -10235852.899 9
     -3320.482       -2587.378         169.000         170.000
  23750102.838    23750103.057    23750109.376   -10396764.731 9  -8086480.264 9
     -3246.693       -2529.887         156.000         159.000
  21099807.982    21099807.772    21099810.970   -21915611.145 9 -17058544.038 9
      2151.818        1676.741         205.000         205.000
  24418406.198    24418405.985    24418410.379    -2444089.232 9  -1885701.568 9
      3279.601        2555.529         144.000         150.000
  22610550.970    22610550.578    22610552.755   -18182518.124 9 -13879253.978 9
     -2279.460       -1776.197         190.000         189.000
  21311976.524    21311976.254    21311980.429   -20339273.601 9 -15836361.784 9
      -532.639        -415.037         203.000         203.000
  22125622.079    22125621.557    22125626.992   -15795700.572 9 -12292828.177 9
      2682.309        2090.113         187.000         187.000
 11  6 30  0 21 30.0000000  0  9 19 32  3  6 11 20 22 14 24
  21266326.885    21266325.924    21266328.681   -24779782.507 9 -19298462.039 9
     -1579.634       -1230.882         210.000         210.000
  22021872.604    22021872.020    22021877.981   -17320957.055 9 -13209720.985 9
      2271.144        1769.722         190.000         191.000
  23124790.694    23124790.400    23124795.515   -13088356.896 9 -10158165.175 9
     -3324.918       -2590.826         169.000         170.000
  23768652.858    23768651.818    23768657.465   -10299289.694 9  -8010525.757 9
     -3250.101       -2532.547         156.000         159.000
  21087561.203    21087561.098    21087564.295   -21979966.930 9 -17108691.393 9
      2139.794        1667.370         205.000         205.000
  24399696.297    24399696.908    24399701.098    -2542404.532 9  -1962310.882 9
      3275.981        2552.711         146.000         149.000
  22623577.860    22623576.805    22623579.419   -18114061.097 9 -13825910.843 9
     -2283.113       -1779.054         189.000         189.000
  21315074.348    21315074.064    21315078.177   -20322994.867 9 -15823677.054 9
      -551.364        -429.632         203.000         203.000
  22110327.045    22110326.883    22110332.210   -15876074.544 9 -12355457.235 9
      2677.167        2086.087         187.000         187.000
 11  6 30  0 22  0.0000000  0  9 19 32  3  6 11 20 22 14 24
  21275392.636    21275391.752    21275394.819   -24732140.306 9 -19261338.255 9
     -1597.181       -1244.559         210.000         210.000
  22008937.630    22008936.817    22008942.812   -17388932.588 9 -13262688.935 9
      2259.920        1760.980         191.000         191.000
  23143786.502    23143785.878    23143792.647   -12988531.794 9 -10080379.398 9
     -3330.771       -2595.396         168.000         169.000
  23787219.087    23787219.948    23787223.202   -10201720.916 9  -7934498.206 9
     -3254.868       -2536.248         155.000         159.000
  21075382.089    21075381.874    21075385.358   -22043968.497 9 -17158562.745 9
      2126.291        1656.852         205.000         205.000
  24381007.431    24381006.727    24381012.697    -2640616.216 9  -2038839.442 9
      3270.790        2548.671         146.000         148.000
  22636624.409    22636623.753    22636626.897   -18045500.953 9 -13772487.365 9
     -2288.194       -1783.010         189.000         189.000
  21318277.318    21318277.215    21318281.304   -20306163.249 9 -15810561.513 9
      -571.430        -445.273         203.000         203.000
  22095060.773    22095060.603    22095065.907   -15956300.537 9 -12417970.990 9
      2670.520        2080.922         187.000         188.000
 11  6 30  0 22 30.0000000  0  9 19 32  3  6 11 20 22 14 24
  21284556.515    21284555.498    21284558.778   -24683983.775 9 -19223813.686 9
     -1613.757       -1257.472         209.000         209.000
  21996064.287    21996063.787    21996069.322   -17456582.458 9 -13315403.121 9
      2249.577        1752.918         191.000         192.000
  23162813.605    23162813.645    23162819.327   -12888544.748 9 -10002467.432 9
     -3335.527       -2599.106         169.000         170.000
  23805810.231    23805810.333    23805814.067   -10104021.822 9  -7858369.117 9
     -3258.609       -2539.168         155.000         158.000
  21063278.107    21063277.968    21063281.428   -22107575.061 9 -17208126.294 9
      2113.610        1646.970         205.000         205.000
  24362345.444    24362345.255    24362351.083    -2738684.565 9  -2115256.371 9
      3266.581        2545.387         146.000         149.000
  22649698.117    22649697.075    22649700.391   -17976799.440 9 -13718953.728 9
     -2292.391       -1786.282         188.000         189.000
  21321593.237    21321592.797    21321596.620   -20288740.666 9 -15796985.464 9
      -590.586        -460.200         203.000         203.000
  22079829.934    22079829.502    22079835.346   -16036338.336 9 -12480338.098 9
      2664.773        2076.456         187.000         188.000
 11  6 30  0 23  0.0000000  0  9 19 32  3  6 11 20 22 14 24
  21293812.127    21293811.074    21293814.231   -24635345.374 9 -19185913.636 9
     -1629.729       -1269.911         209.000         209.000
  21983247.309    21983246.585    21983251.799   -17523937.469 9 -13367887.549 9
      2239.817        1745.322         191.000         191.000
  23181865.487    23181864.652    23181870.110   -12788429.560 9  -9924455.609 9
     -3339.724       -2602.390         169.000         171.000
  23824420.392    23824420.917    23824425.293   -10006225.904 9  -7782164.604 9
     -3261.762       -2541.630         156.000         159.000
  21051244.020    21051243.731    21051246.910   -22170815.611 9 -17257404.646 9
      2101.457        1637.504         206.000         206.000
  24343705.756    24343705.264    24343710.869    -2836639.843 9  -2191585.152 9
      3262.852        2542.479         147.000         151.000
  22662791.702    22662790.902    22662794.139   -17907988.653 9 -13665334.943 9
     -2295.941       -1789.032         188.000         188.000
  21325014.515    21325014.378    21325018.360   -20270759.132 9 -15782973.874 9
      -609.137        -474.653         203.000         203.000
  22064629.309    22064629.175    22064634.433   -16116217.295 9 -12542581.433 9
      2659.518        2072.351         187.000         187.000
 11  6 30  0 23 30.0000000  0  9 19 32  3  6 11 20 22 14 24
  21303157.399    21303156.451    21303159.338   -24586236.133 9 -19147646.701 9
     -1644.207       -1281.197         209.000         209.000
  21970483.709    21970483.423    21970488.977   -17591006.784 9 -13420149.351 9
      2231.507        1738.841         191.000         192.000
  23200939.110    23200938.683    23200944.388   -12688197.955 9  -9846353.066 9
     -3342.393       -2604.456         170.000         171.000
  23843046.879    23843047.117    23843051.678    -9908344.641 9  -7705893.584 9
     -3263.383       -2542.897         155.000         158.000
  21039277.693    21039277.494    21039281.195   -22233697.456 9 -17306403.488 9
      2090.646        1629.074         206.000         206.000
  24325086.360    24325085.055    24325089.391    -2934490.870 9  -2267832.706 9
      3260.489        2540.645         148.000         151.000
  22675905.000    22675904.198    22675906.912   -17839079.061 9 -13611639.166 9
     -2298.030       -1790.674         187.000         186.000
  21328540.795    21328540.393    21328544.483   -20252228.972 9 -15768534.790 9
      -626.213        -487.964         203.000         203.000
  22049457.461    22049457.323    22049462.960   -16195945.337 9 -12604707.169 9
      2655.674        2069.341         187.000         187.000
 11  6 30  0 24  0.0000000  0  9 19 32  3  6 11 20 22 14 24
  21312594.298    21312593.233    21312596.233   -24536645.268 9 -19109004.477 9
     -1660.503       -1293.893         209.000         209.000
  21957778.206    21957777.231    21957782.978   -17657777.716 9 -13472178.656 9
      2221.301        1730.892         191.000         191.000
  23220037.055    23220036.165    23220041.629   -12587839.982 9  -9768152.063 9
     -3346.773       -2607.861         171.000         173.000
  23861690.715    23861690.783    23861695.675    -9810368.359 9  -7629548.513 9
     -3266.785       -2545.546         155.000         158.000
  21027382.514    21027382.387    21027386.197   -22296206.492 9 -17355111.825 9
      2077.935        1619.173         206.000         207.000
  24306488.565    24306487.384    24306491.199    -3032224.417 9  -2343988.723 9
      3256.333        2537.405         147.000         150.000
  22689039.107    22689038.294    22689040.575   -17770059.213 9 -13557857.470 9
     -2301.939       -1793.729         186.000         186.000
  21332173.523    21332173.199    21332177.295   -20233138.995 9 -15753659.485 9
      -645.136        -502.698         202.000         203.000
  22034317.125    22034317.277    22034322.890   -16275508.795 9 -12666704.658 9
      2649.859        2064.820         187.000         188.000
 11  6 30  0 24 30.0000000  0 10 19 32 31  3  6 11 20 22 14 24
  21322119.467    21322118.466    21322121.353   -24486590.006 9 -19070000.375 9
     -1676.302       -1306.214         209.000         209.000
  21945125.470    21945124.721    21945130.391   -17724265.833 9 -13523987.575 9
      2211.471        1723.223         191.000         190.000
  25075162.415    25075165.503    25075324.259      -76047.133 9    -35349.329 9
      3183.931        2480.985          74.000          74.000
  23239154.846    23239154.643    23239158.993   -12487374.200 9  -9689867.058 9
     -3350.724       -2610.948         171.000         173.000
  23880350.624    23880350.303    23880355.562    -9712314.959 9  -7553143.393 9
     -3269.637       -2547.756         155.000         158.000
  21015555.938    21015555.907    21015559.239   -22358356.220 9 -17403540.177 9
      2065.573        1609.535         206.000         207.000
  24287908.791    24287907.985    24287912.722    -3129855.570 9  -2420064.947 9
      3252.610        2534.499         144.000         147.000
  22702190.867    22702190.277    22702192.500   -17700945.702 9 -13504002.795 9
     -2305.411       -1796.424         185.000         185.000
  21335909.713    21335909.281    21335913.482   -20213505.808 9 -15738360.890 9
      -663.552        -517.049         202.000         203.000
  22019205.404    22019205.197    22019211.226   -16354921.642 9 -12728584.785 9
      2644.501        2060.646         188.000         189.000
 11  6 30  0 25  0.0000000  0 10 19 32 31  3  6 11 20 22 14 24
  21331737.948    21331736.696    21331740.053   -24436044.529 9 -19030614.286 9
     -1692.748       -1319.027         209.000         209.000
  21932532.814    21932531.720    21932537.760   -17790443.402 9 -13575554.512 9
      2201.007        1715.072         191.000         191.000
  25056985.082    25056989.186    25056991.694     -171564.257 9   -109778.017 9
      3184.362        2481.322          74.000         139.000
  23258298.605    23258298.552    23258302.659   -12386776.046 9  -9611478.898 9
     -3355.220       -2614.464         171.000         173.000
  23899028.658    23899028.142    23899032.152    -9614159.426 9  -7476658.704 9
     -3273.152       -2550.504         155.000         157.000
  21003803.169    21003803.049    21003806.545   -22420117.691 9 -17451665.996 9
      2052.463        1599.319         206.000         207.000
  24269354.890    24269354.838    24269360.181    -3227356.180 9  -2496039.421 9
      3248.079        2530.960         142.000         146.000
  22715365.912    22715365.194    22715367.114   -17631712.180 9 -13450054.608 9
     -2309.523       -1799.631         185.000         186.000
  21339753.862    21339753.624    21339757.698   -20193303.455 9 -15722618.789 9
      -682.651        -531.940         202.000         202.000
  22004127.403    22004127.510    22004133.460   -16434155.094 9 -12790325.117 9
      2638.319        2055.819         188.000         189.000
 11  6 30  0 25 30.0000000  0 10 19 32 31  3  6 11 20 22 14 24
  21341446.010    21341445.071    21341447.857   -24385029.150 9 -18990862.032 9
     -1708.137       -1331.024         209.000         209.000
  21919995.136    21919994.137    21919999.591   -17856328.753 9 -13626893.743 9
      2191.471        1707.640         191.000         192.000
  25038803.278    25038806.085    25038805.731     -267117.038 9   -184234.850 9
      3185.897        2482.524          74.000         142.000
  23277462.249    23277462.590    23277467.104   -12286066.499 9  -9533003.945 9
     -3358.638       -2617.129         171.000         171.000
  23917722.148    23917722.333    23917727.292    -9515922.522 9  -7400110.593 9
     -3275.545       -2552.369         155.000         157.000
  20992121.192    20992120.848    20992124.417   -22481507.356 9 -17499502.095 9
      2040.313        1589.851         206.000         206.000
  24250823.030    24250822.172    24250826.911    -3324744.257 9  -2571926.199 9
      3244.588        2528.250         143.000         148.000
  22728559.790    22728558.639    22728561.539   -17562378.207 9 -13396028.138 9
     -2312.605       -1802.040         185.000         186.000
  21343702.933    21343702.518    21343706.834   -20172551.447 9 -15706448.384 9
      -700.666        -545.974         202.000         202.000
  21989080.474    21989080.372    21989086.914   -16513226.284 9 -12851939.018 9
      2633.187        2051.839         189.000         189.000
 11  6 30  0 26  0.0000000  0 10 19 32 31  3  6 11 20 22 14 24
  21351244.209    21351243.229    21351246.297   -24333538.587 9 -18950739.505 9
     -1725.042       -1344.190         209.000         210.000
  21907514.514    21907513.942    21907519.106   -17921914.752 9 -13677999.726 9
      2180.465        1699.067         191.000         191.000
  25020617.724    25020613.849    25020619.798     -362695.248 9   -258711.348 9
      3185.624        2482.306         137.000         148.000
  23296649.264    23296649.432    23296652.636   -12185241.198 9  -9454438.790 9
     -3363.505       -2620.916         170.000         170.000
  23936432.507    23936433.057    23936438.170    -9417599.971 9  -7323495.760 9
     -3279.460       -2555.421         154.000         157.000
  20980511.404    20980511.192    20980514.747   -22542516.667 9 -17547041.809 9
      2026.517        1579.104         206.000         206.000
  24232314.065    24232312.860    24232318.378    -3422012.298 9  -2647719.440 9
      3239.518        2524.299         145.000         149.000
  22741774.097    22741773.314    22741774.948   -17492937.611 9 -13341918.604 9
     -2317.213       -1805.622         185.000         185.000
  21347757.540    21347757.393    21347761.510   -20151243.942 9 -15689845.125 9
      -720.207        -561.197         202.000         202.000
  21974066.711    21974066.239    21974072.165   -16592127.007 9 -12913420.090 9
      2626.408        2046.548         189.000         189.000
 11  6 30  0 26 30.0000000  0 10 19 32 31  3  6 11 20 22 14 24
  21361131.651    21361130.863    21361133.827   -24281578.169 9 -18910250.855 9
     -1740.129       -1355.942         209.000         209.000
  21895090.156    21895089.982    21895094.655   -17987204.960 9 -13728875.207 9
      2171.104        1691.769         191.000         191.000
  25002421.730    25002420.622    25002426.743     -458299.454 9   -333208.114 9
      3186.889        2483.282         139.000         144.000
  23315855.814    23315855.932    23315860.225   -12084306.620 9  -9375788.492 9
     -3366.588       -2623.320         169.000         169.000
  23955158.327    23955158.702    23955163.587    -9319197.616 9  -7246818.710 9
     -3281.553       -2557.041         154.000         157.000
  20968973.950    20968973.956    20968976.964   -22603146.856 9 -17594286.111 9
      2014.383        1569.650         206.000         206.000
  24213827.242    24213825.751    24213831.051    -3519163.006 9  -2723421.302 9
      3236.066        2521.616         145.000         149.000
  22755007.574    22755006.998    22755009.264   -17423395.227 9 -13287729.746 9
     -2320.074       -1807.850         185.000         187.000
  21351917.349    21351916.965    21351920.999   -20129385.609 9 -15672812.650 9
      -738.091        -575.136         202.000         202.000
  21959084.582    21959084.052    21959090.155   -16670859.204 9 -12974769.839 9
      2621.282        2042.553         188.000         189.000
 11  6 30  0 27  0.0000000  0 10 19 32 31  3  6 11 20 22 14 24
  21371108.416    21371107.713    21371110.960   -24229149.148 9 -18869397.054 9
     -1755.285       -1367.757         209.000         208.000
  21882722.259    21882721.708    21882726.556   -18052198.609 9 -13779519.606 9
      2161.645        1684.394         191.000         191.000
  24984223.603    24984223.867    24984228.097     -553926.302 9   -407722.541 9
      3187.993        2484.153         136.000         141.000
  23335083.592    23335082.967    23335087.217   -11983265.119 9  -9297054.877 9
     -3369.715       -2625.757         168.000         169.000
  23973898.687    23973898.594    23973903.937    -9220717.643 9  -7170081.212 9
     -3283.658       -2558.700         153.000         156.000
  20957508.998    20957508.558    20957512.192   -22663396.130 9 -17641233.591 9
      2002.047        1560.035         206.000         206.000
  24195362.379    24195361.792    24195367.029    -3616195.475 9  -2799031.004 9
      3232.621        2518.922         143.000         147.000
  22768260.252    22768259.177    22768262.020   -17353751.346 9 -13233461.805 9
     -2323.041       -1810.168         186.000         186.000
  21356181.577    21356180.957    21356185.086   -20106977.557 9 -15655351.817 9
      -756.007        -589.098         202.000         202.000
  21944133.970    21944134.270    21944139.684   -16749421.320 9 -13035987.058 9
      2615.994        2038.431         188.000         188.000
 11  6 30  0 27 30.0000000  0 10 19 32 31  3  6 11 20 22 14 24
  21381176.801    21381176.050    21381179.179   -24176239.216 9 -18828168.531 9
     -1771.996       -1380.769         208.000         208.000
  21870413.617    21870412.988    21870418.420   -18116881.667 9 -13829921.992 9
      2150.586        1675.775         191.000         192.000
  24966025.496    24966025.435    24966030.573     -649558.787 9   -482241.336 9
      3187.412        2483.694         140.000         147.000
  23354333.881    23354333.178    23354338.770   -11882104.888 9  -9218228.761 9
     -3374.331       -2629.340         167.000         169.000
  23992655.671    23992656.310    23992660.577    -9122148.169 9  -7093273.957 9
     -3287.334       -2561.547         153.000         156.000
  20946119.323    20946118.973    20946122.539   -22723248.428 9 -17687871.747 9
      1988.062        1549.147         206.000         207.000
  24176920.863    24176922.168    24176924.445    -3713095.052 9  -2874537.111 9
      3227.554        2514.979         141.000         144.000
  22781534.635    22781533.989    22781537.240   -17283992.980 9 -13179104.650 9
     -2327.563       -1813.691         185.000         186.000
  21360552.427    21360552.285    21360556.431   -20084007.082 9 -15637452.744 9
      -775.465        -604.255         202.000         202.000
  21929220.109    21929220.169    21929225.511   -16827797.500 9 -13097059.395 9
      2609.068        2033.041         188.000         189.000
 11  6 30  0 28  0.0000000  0 10 19 32 31  3  6 11 20 22 14 24
  21391333.512    21391332.450    21391335.668   -24122866.809 9 -18786579.621 9
     -1786.734       -1392.257         208.000         207.000
  21858160.437    21858159.964    21858165.401   -18181270.479 9 -13880095.077 9
      2141.426        1668.642         192.000         192.000
  24947824.096    24947823.305    24947828.515     -745210.508 9   -556775.092 9
      3188.737        2484.729         140.000         144.000
  23373602.526    23373602.929    23373607.605   -11780845.576 9  -9139325.427 9
     -3376.885       -2631.336         167.000         170.000
  24011426.234    24011425.119    24011431.210    -9023508.315 9  -7016411.860 9
     -3289.019       -2562.874         151.000         154.000
  20934802.458    20934802.213    20934805.672   -22782718.770 9 -17734212.268 9
      1975.992        1539.740         207.000         207.000
  24158505.927    24158504.946    24158510.055    -3809877.608 9  -2949952.084 9
      3224.191        2512.360         144.000         150.000
  22794827.719    22794826.782    22794829.420   -17214137.946 9 -13124672.170 9
     -2330.063       -1815.622         185.000         186.000
  21365027.100    21365026.686    21365030.912   -20060491.646 9 -15619129.018 9
      -792.907        -617.854         202.000         202.000
  21914338.247    21914337.848    21914343.563   -16906002.925 9 -13157998.668 9
      2604.008        2029.106         189.000         190.000
 11  6 30  0 28 30.0000000  0 10 19 32 31  3  6 11 20 22 14 24
  21401578.714    21401577.670    21401580.472   -24069029.148 9 -18744628.186 9
     -1802.647       -1404.661         208.000         208.000
  21845964.529    21845963.871    21845969.689   -18245360.426 9 -13930035.297 9
      2131.005        1660.520         192.000         192.000
  24929620.423    24929621.595    24929626.760     -840873.594 9   -631317.747 9
      3188.598        2484.624         139.000         144.000
  23392891.249    23392891.376    23392896.530   -11679484.709 9  -9060342.968 9
     -3380.721       -2634.327         167.000         168.000
  24030211.642    24030211.154    24030215.629    -8924795.918 9  -6939493.238 9
     -3291.777       -2565.030         150.000         152.000
  20923559.488    20923559.288    20923562.718   -22841800.468 9 -17780249.953 9
      1962.539        1529.251         207.000         207.000
  24140112.218    24140112.122    24140115.569    -3906538.113 9  -3025271.926 9
      3219.623        2508.794         148.000         152.000
  22808140.222    22808139.102    22808141.644   -17144182.402 9 -13070161.377 9
     -2333.889       -1818.621         185.000         186.000
  21369606.277    21369606.085    21369610.132   -20036428.049 9 -15600378.163 9
      -811.612        -632.426         201.000         201.000
  21899489.620    21899489.825    21899494.934   -16984031.445 9 -13218800.103 9
      2597.624        2024.114         190.000         191.000
 11  6 30  0 29  0.0000000  0 10 19 32 31  3  6 11 20 22 14 24
  21411915.459    21411914.534    21411917.330   -24014708.993 9 -18702300.781 9
     -1818.400       -1416.931         208.000         207.000
  21833829.772    21833828.934    21833834.436   -18309132.333 9 -13979727.681 9
      2120.740        1652.526         193.000         194.000
  24911419.325    24911418.519    24911422.257     -936526.187 9   -705852.262 9
      3188.534        2484.574         145.000         151.000
  23412201.606    23412202.101    23412205.050   -11578006.659 9  -8981269.194 9
     -3384.223       -2637.036         166.000         167.000
  24049012.249    24049011.469    24049018.146    -8825994.466 9  -6862505.198 9
     -3294.413       -2567.061         150.000         152.000
  20912394.528    20912394.224    20912397.663   -22900472.926 9 -17825968.742 9
      1949.201        1518.857         207.000         207.000
  24121744.482    24121743.574    24121748.942    -4003057.209 9  -3100481.585 9
      3215.171        2505.320         149.000         152.000
  22821474.736    22821474.001    22821476.423   -17074108.526 9 -13015558.381 9
     -2337.472       -1821.403         186.000         186.000
  21374292.932    21374292.825    21374296.470   -20011799.439 9 -15581187.033 9
      -830.062        -646.796         201.000         201.000
  21884678.826    21884678.724    21884684.089   -17061862.945 9 -13279448.016 9
      2591.386        2019.265         190.000         191.000
 11  6 30  0 29 30.0000000  0 10 19 32 31  3  6 11 20 22 14 24
  21422339.641    21422338.762    21422341.538   -23959929.074 9 -18659615.121 9
     -1834.057       -1429.130         208.000         207.000
  21821750.829    21821749.960    21821755.723   -18372606.759 9 -14029188.251 9
      2110.469        1644.528         193.000         193.000
  24893215.014    24893214.885    24893220.524    -1032185.976 9   -780392.341 9
      3188.278        2484.372         144.000         148.000
  23431530.420    23431529.881    23431534.592   -11476434.574 9  -8902122.138 9
     -3387.705       -2639.769         167.000         168.000
  24067826.710    24067825.900    24067831.428    -8727127.143 9  -6785465.862 9
     -3296.951       -2569.045         149.000         152.000
  20901303.765    20901303.592    20901306.866   -22958754.805 9 -17871383.180 9
      1935.778        1508.398         207.000         207.000
  24103400.682    24103400.483    24103405.723    -4099454.783 9  -3175596.533 9
      3210.769        2501.892         147.000         150.000
  22834827.901    22834826.975    22834829.173   -17003937.966 9 -12960880.037 9
     -2341.033       -1824.176         185.000         186.000
  21379083.324    21379083.008    21379086.743   -19986626.771 9 -15561571.958 9
      -848.551        -661.205         201.000         202.000
  21869901.765    21869901.666    21869907.673   -17139516.402 9 -13339957.188 9
      2585.058        2014.337         190.000         191.000
 11  6 30  0 30  0.0000000  0 10 19 32 31  3  6 11 20 22 14 24
  21432851.880    21432851.111    21432853.916   -23904685.930 9 -18616568.508 9
     -1848.972       -1440.763         207.000         207.000
  21809729.560    21809729.007    21809733.985   -18435778.716 9 -14078413.132 9
      2100.858        1637.034         193.000         193.000
  24875010.727    24875011.501    24875015.939    -1127844.637 9   -854931.575 9
      3188.745        2484.735         143.000         147.000
  23450877.807    23450877.647    23450881.890   -11374765.899 9  -8822899.831 9
     -3390.387       -2641.852         167.000         169.000
  24086653.057    24086652.894    24086658.895    -8628191.234 9  -6708373.058 9
     -3298.716       -2570.426         148.000         152.000
  20890289.010    20890288.522    20890291.795   -23016639.518 9 -17916488.149 9
      1923.030        1498.456         207.000         208.000
  24085080.514    24085079.761    24085084.817    -4195725.124 9  -3250612.343 9
      3207.042        2498.999         144.000         147.000
  22848200.065    22848199.394    22848201.760   -16933665.896 9 -12906122.597 9
     -2343.913       -1826.423         185.000         184.000
  21383977.719    21383976.999    21383981.604   -19960906.749 9 -15541530.378 9
      -866.296        -675.039         201.000         201.000
  21855160.105    21855159.598    21855165.005   -17216985.408 9 -13400322.635 9
      2579.355        2009.886         191.000         191.000
 11  6 30  0 30 30.0000000  0 10 19 32 31  3  6 11 20 22 14 24
  21443450.496    21443449.343    21443452.483   -23848990.574 9 -18573169.527 9
     -1864.401       -1452.781         207.000         206.000
  21797763.934    21797763.664    21797768.822   -18498657.016 9 -14127409.195 9
      2090.696        1629.108         193.000         194.000
  24856804.810    24856806.133    24856812.491    -1223508.463 9   -929474.770 9
      3188.432        2484.487         144.000         149.000
  23470240.030    23470239.198    23470245.075   -11273012.561 9  -8743611.574 9
     -3393.522       -2644.286         166.000         168.000
  24105491.269    24105491.790    24105496.271    -8529198.115 9  -6631235.682 9
     -3300.972       -2572.182         148.000         150.000
  20879348.050    20879347.747    20879351.305   -23074134.391 9 -17961289.345 9
      1909.604        1488.000         208.000         208.000
  24066784.162    24066783.008    24066787.280    -4291876.584 9  -3325535.550 9
      3202.693        2495.605         143.000         148.000
  22861590.009    22861588.779    22861590.700   -16863303.260 9 -12851294.575 9
     -2347.323       -1829.081         183.000         184.000
  21388973.989    21388973.647    21388978.011   -19934649.976 9 -15521070.559 9
      -884.531        -689.250         201.000         201.000
  21840451.817    21840451.611    21840457.278   -17294277.544 9 -13460550.263 9
      2573.021        2004.954         190.000         191.000
 11  6 30  0 31  0.0000000  0 10 19 32 31  3  6 11 20 22 14 24
  21454136.478    21454135.452    21454138.410   -23792835.276 9 -18529412.148 9
     -1879.422       -1464.484         206.000         206.000
  21785856.352    21785856.101    21785861.422   -18561232.083 9 -14176168.981 9
      2080.839        1621.431         194.000         194.000
  24838603.635    24838603.980    24838608.519    -1319164.539 9  -1004011.956 9
      3188.440        2484.503         145.000         148.000
  23489621.203    23489619.500    23489625.374   -11171167.750 9  -8664252.020 9
     -3396.268       -2646.432         166.000         167.000
  24124341.465    24124340.731    24124346.821    -8430140.597 9  -6554048.111 9
     -3302.721       -2573.548         147.000         151.000
  20868483.378    20868483.164    20868486.614   -23131227.873 9 -18005777.764 9
      1896.471        1477.774         208.000         208.000
  24048512.004    24048510.793    24048515.479    -4387899.264 9  -3400358.388 9
      3198.692        2492.487         145.000         149.000
  22874997.160    22874996.890    22874999.222   -16792841.198 9 -12796389.084 9
     -2350.315       -1831.413         182.000         181.000
  21394074.325    21394074.135    21394078.353   -19907847.950 9 -15500185.866 9
      -902.393        -703.152         201.000         201.000
  21825779.192    21825778.924    21825784.614   -17371381.781 9 -13520631.471 9
      2567.052        2000.307         191.000         191.000
 11  6 30  0 31 30.0000000  0 10 19 32 31  3  6 11 20 22 14 24
  21464908.121    21464907.227    21464910.027   -23736229.547 9 -18485303.786 9
     -1893.671       -1475.590         206.000         206.000
  21774005.620    21774004.659    21774010.159   -18623511.253 9 -14224698.191 9
      2071.724        1614.335         194.000         195.000
  24820401.304    24820401.407    24820405.957    -1414817.390 9  -1078546.701 9
      3188.934        2484.883         142.000         145.000
  23509017.171    23509016.345    23509021.357   -11069241.289 9  -8584828.824 9
     -3398.236       -2647.966         165.000         166.000
  24143201.953    24143201.316    24143208.149    -8331028.892 9  -6476818.313 9
     -3303.791       -2574.373         147.000         150.000
  20857694.380    20857694.176    20857697.491   -23187925.366 9 -18049957.615 9
      1883.959        1468.019         209.000         209.000
  24030262.144    24030261.701    24030266.520    -4483800.041 9  -3475086.231 9
      3195.350        2489.880         145.000         149.000
  22888423.731    22888423.437    22888425.584   -16722287.812 9 -12741412.427 9
     -2352.600       -1833.190         181.000         182.000
  21399276.618    21399276.427    21399280.384   -19880509.870 9 -15478883.462 9
      -919.528        -716.519         201.000         200.000
  21811141.618    21811141.560    21811146.864   -17448304.140 9 -13580570.963 9
      2561.673        1996.104         191.000         193.000
 11  6 30  0 32  0.0000000  0 10 19 32 31  3  6 11 20 22 14 24
  21475767.833    21475767.236    21475769.760   -23679160.513 9 -18440834.413 9
     -1910.736       -1488.886         206.000         206.000
  21762212.675    21762212.560    21762217.532   -18685479.784 9 -14272985.349 9
      2059.717        1604.961         194.000         195.000
  24802203.656    24802203.548    24802208.427    -1510449.171 9  -1153064.889 9
      3186.522        2483.005         143.000         148.000
  23528430.810    23528430.724    23528435.411   -10967221.112 9  -8505332.616 9
     -3402.922       -2651.610         163.000         166.000
  24162074.556    24162076.373    24162080.265    -8231850.572 9  -6399536.602 9
     -3307.655       -2577.394         146.000         150.000
  20846983.634    20846983.293    20846986.551   -23244210.734 9 -18093816.335 9
      1868.559        1456.009         209.000         209.000
  24012038.244    24012038.420    24012042.792    -4579563.505 9  -3549707.051 9
      3189.074        2484.989         147.000         151.000
  22901869.051    22901868.422    22901871.821   -16651629.866 9 -12686354.298 9
     -2357.711       -1837.191         181.000         182.000
  21404583.228    21404583.116    21404587.098   -19852622.574 9 -15457153.093 9
      -939.470        -732.062         201.000         201.000
  21796541.197    21796541.201    21796546.619   -17525028.293 9 -13640356.009 9
      2553.421        1989.674         192.000         193.000
 11  6 30  0 32 30.0000000  0 10 19 32 31  3  6 11 20 22 14 24
  21486715.515    21486714.590    21486717.530   -23621631.636 9 -18396006.716 9
     -1924.063       -1499.270         206.000         206.000
  21750479.550    21750478.887    21750484.317   -18747139.490 9 -14321031.864 9
      2051.319        1598.430         194.000         195.000
  24784009.401    24784010.051    24784015.090    -1606058.508 9  -1227565.580 9
      3187.611        2483.854         143.000         147.000
  23547861.746    23547861.224    23547866.487   -10865111.800 9  -8425766.953 9
     -3403.949       -2652.432         163.000         163.000
  24180960.445    24180959.208    24180965.144    -8132609.732 9  -6322206.173 9
     -3307.751       -2577.468         146.000         149.000
  20836351.224    20836350.841    20836354.221   -23300084.030 9 -18137353.964 9
      1856.726        1446.796         209.000         209.000
  23993841.434    23993840.818    23993845.033    -4675191.128 9  -3624222.062 9
      3186.572        2483.043         145.000         148.000
  22915333.701    22915333.522    22915336.555   -16580870.040 9 -12631216.781 9
     -2359.195       -1838.331         180.000         181.000
  21409993.996    21409993.552    21409998.012   -19824188.861 9 -15434996.951 9
      -955.689        -744.690         200.000         200.000
  21781978.693    21781978.818    21781984.566   -17601554.651 9 -13699986.926 9
      2548.744        1986.037         192.000         193.000
 11  6 30  0 33  0.0000000  0 10 19 32 31  3  6 11 20 22 14 24
  21497740.449    21497739.773    21497742.895   -23563693.059 9 -18350859.770 9
     -1938.974       -1510.889         206.000         206.000
  21738795.804    21738795.224    21738800.978   -18808537.889 9 -14368874.754 9
      2041.386        1590.697         195.000         196.000
  24765812.369    24765811.301    24765816.444    -1701690.152 9  -1302083.657 9
      3187.201        2483.529         146.000         150.000
  23567299.612    23567298.584    23567303.593   -10762963.604 9  -8346170.951 9
     -3406.425       -2654.347         162.000         164.000
  24199846.483    24199846.998    24199853.566    -8033356.667 9  -6244866.193 9
     -3309.382       -2578.734         147.000         152.000
  20825788.478    20825788.264    20825791.508   -23355591.072 9 -18180606.197 9
      1843.258        1436.305         209.000         209.000
  23975661.392    23975661.284    23975665.420    -4770730.143 9  -3698668.042 9
      3182.238        2479.663         146.000         151.000
  22928809.763    22928808.701    22928812.428   -16510056.369 9 -12576037.314 9
     -2362.225       -1840.696         180.000         180.000
  21415499.022    21415499.112    21415503.371   -19795258.227 9 -15412453.601 9
      -973.493        -758.564         200.000         200.000
  21767445.428    21767445.162    21767450.701   -17677929.531 9 -13759499.801 9
      2542.392        1981.087         193.000         193.000
 11  6 30  0 33 30.0000000  0 10 19 32 31  3  6 11 20 22 14 24
  21508852.072    21508850.957    21508854.327   -23505302.525 9 -18305360.658 9
     -1954.056       -1522.642         206.000         205.000
  21727170.140    21727169.731    21727175.015   -18869631.079 9 -14416479.814 9
      2031.182        1582.742         196.000         196.000
  24747618.030    24747618.039    24747624.419    -1797297.011 9  -1376582.393 9
      3186.218        2482.763         142.000         146.000
  23586754.182    23586752.422    23586757.709   -10660735.139 9  -8266512.465 9
     -3409.110       -2656.464         162.000         163.000
  24218743.900    24218745.215    24218750.419    -7934049.716 9  -6167484.224 9
     -3311.180       -2580.140         146.000         150.000
  20815304.264    20815304.086    20815307.437   -23410686.178 9 -18223537.442 9
      1829.416        1425.518         209.000         209.000
  23957505.231    23957504.509    23957509.706    -4866135.497 9  -3773009.862 9
      3177.741        2476.158         146.000         150.000
  22942303.693    22942302.807    22942305.438   -16439146.239 9 -12520782.695 9
     -2365.470       -1843.230         180.000         181.000
  21421107.228    21421107.059    21421111.178   -19765788.097 9 -15389489.859 9
      -991.524        -772.613         200.000         200.000
  21752948.937    21752948.755    21752954.545   -17754107.391 9 -13818859.162 9
      2535.779        1975.930         193.000         193.000
 11  6 30  0 34  0.0000000  0 10 19 32 31  3  6 11 20 22 14 24
  21520052.012    21520051.135    21520054.355   -23446445.712 9 -18259498.224 9
     -1969.463       -1534.646         205.000         205.000
  21715606.396    21715605.319    21715610.517   -18930402.455 9 -14463834.114 9
      2020.540        1574.439         197.000         197.000
  24729433.540    24729433.622    24729438.844    -1892859.454 9  -1451046.579 9
      3184.818        2481.668         144.000         148.000
  23606223.955    23606224.586    23606228.273   -10558412.947 9  -8186780.961 9
     -3412.098       -2658.767         161.000         163.000
  24237654.903    24237654.006    24237660.788    -7834674.749 9  -6090049.227 9
     -3313.266       -2581.759         146.000         150.000
  20804902.048    20804901.545    20804904.777   -23465351.187 9 -18266133.546 9
      1815.168        1414.414         209.000         209.000
  23939378.708    23939378.091    23939382.891    -4961390.384 9  -3847234.415 9
      3172.848        2472.350         147.000         151.000
  22955818.833    22955817.710    22955820.689   -16368124.063 9 -12465440.768 9
     -2369.082       -1846.039         181.000         182.000
  21426821.080    21426820.667    21426824.438   -19735763.845 9 -15366094.333 9
     -1009.842        -786.891         200.000         200.000
  21738493.794    21738493.569    21738499.325   -17830070.447 9 -13878051.151 9
      2528.673        1970.395         193.000         193.000
 11  6 30  0 34 30.0000000  0 10 19 32 31  3  6 11 20 22 14 24
  21531334.839    21531333.885    21531336.961   -23387155.280 9 -18213297.900 9
     -1983.707       -1545.754         205.000         205.000
  21704096.961    21704096.468    21704101.349   -18990883.114 9 -14510961.879 9
      2010.945        1566.956         197.000         198.000
  24711250.529    24711251.158    24711256.348    -1988405.518 9  -1525497.927 9
      3184.271        2481.241         144.000         149.000
  23625707.770    23625707.618    23625711.938   -10456030.537 9  -8107002.497 9
     -3413.930       -2660.209         161.000         163.000
  24256571.557    24256571.624    24256577.230    -7735265.412 9  -6012587.467 9
     -3314.230       -2582.517         146.000         149.000
  20794575.508    20794575.251    20794578.701   -23519615.734 9 -18308417.601 9
      1801.921        1404.085         209.000         209.000
  23921275.723    23921275.036    23921279.754    -5056525.622 9  -3921365.743 9
      3168.968        2469.325         148.000         153.000
  22969349.266    22969348.922    22969351.165   -16297021.693 9 -12410036.342 9
     -2371.591       -1848.001         182.000         183.000
  21432633.546    21432633.382    21432637.515   -19705217.713 9 -15342292.143 9
     -1027.113        -800.350         200.000         200.000
  21724073.797    21724073.709    21724078.975   -17905847.962 9 -13937098.546 9
      2522.599        1965.653         193.000         194.000
 11  6 30  0 35  0.0000000  0 10 19 32 31  3  6 11 20 22 14 24
  21542706.903    21542705.836    21542708.862   -23327395.967 9 -18166732.221 9
     -1999.021       -1557.675         205.000         205.000
  21692650.504    21692649.569    21692654.577   -19051035.360 9 -14557833.750 9
      2000.320        1558.692         198.000         198.000
  24693080.802    24693080.009    24693085.143    -2083894.778 9  -1599905.042 9
      3182.682        2480.011         145.000         148.000
  23645207.999    23645207.885    23645213.377   -10353553.276 9  -8027150.174 9
     -3416.804       -2662.437         161.000         164.000
  24275502.802    24275501.618    24275506.954    -7635786.367 9  -5935071.361 9
     -3316.244       -2584.081         146.000         150.000
  20784333.033    20784332.916    20784336.216   -23573440.070 9 -18350358.642 9
      1787.498        1392.857         209.000         209.000
  23903202.254    23903201.835    23903206.574    -5151502.779 9  -3995373.878 9
      3163.978        2465.439         149.000         153.000
  22982902.172    22982901.529    22982903.859   -16225802.571 9 -12354540.953 9
     -2375.200       -1850.809         182.000         183.000
  21438552.328    21438552.077    21438556.277   -19674113.836 9 -15318055.352 9
     -1045.387        -814.582         199.000         199.000
  21709696.518    21709696.443    21709702.065   -17981400.734 9 -13995970.829 9
      2515.378        1960.040         193.000         194.000
 11  6 30  0 35 30.0000000  0 10 19 32 31  3  6 11 20 22 14 24
  21554162.545    21554161.271    21554163.989   -23267197.593 9 -18119824.414 9
     -2012.899       -1568.491         205.000         205.000
  21681260.787    21681259.955    21681265.361   -19110887.352 9 -14604471.642 9
      1991.044        1551.455         197.000         197.000
  24674915.307    24674915.552    24674919.551    -2179351.786 9  -1674287.010 9
      3182.372        2479.767         145.000         149.000
  23664720.783    23664721.889    23664724.281   -10251011.480 9  -7947247.559 9
     -3418.146       -2663.492         161.000         163.000
  24294440.023    24294440.002    24294445.598    -7536268.066 9  -5857524.655 9
     -3316.792       -2584.510         146.000         150.000
  20774169.323    20774169.123    20774172.528   -23626850.481 9 -18391977.140 9
      1774.410        1382.658         209.000         209.000
  23885153.771    23885153.688    23885156.196    -5246349.262 9  -4069280.226 9
      3160.310        2462.579         150.000         153.000
  22996470.798    22996470.179    22996473.153   -16154495.615 9 -12298977.127 9
     -2377.389       -1852.521         182.000         182.000
  21444571.862    21444571.314    21444575.933   -19642481.393 9 -15293406.695 9
     -1062.218        -827.709         199.000         199.000
  21695356.922    21695356.846    21695362.693   -18056755.292 9 -14054688.662 9
      2509.479        1955.432         194.000         194.000
 11  6 30  0 36  0.0000000  0 11 19 32 31 28  3  6 11 20 22 14 24
  21565699.165    21565698.234    21565700.945   -23206570.413 9 -18072582.464 9
     -2029.278       -1581.258         204.000         204.000
  21669926.592    21669926.073    21669931.193   -19170447.198 9 -14650881.889 9
      1979.253        1542.275         197.000         197.000
  24656755.521    24656756.267    24656759.657    -2274781.694 9  -1748647.809 9
      3179.290        2477.361         145.000         150.000
                  25505336.324    25505147.138        4881.379 9      1027.594 9
      -188.112        -144.463          74.000          74.000
  23684244.113    23684244.183    23684248.336   -10148416.365 9  -7867303.449 9
     -3421.973       -2666.454         160.000         163.000
  24313383.025    24313383.117    24313388.638    -7436721.451 9  -5779955.914 9
     -3319.792       -2586.855         147.000         151.000
  20764083.234    20764082.819    20764086.451   -23679853.789 9 -18433278.410 9
      1758.742        1370.455         209.000         210.000
  23867128.684    23867127.590    23867131.943    -5341072.929 9  -4143090.858 9
      3154.095        2457.734         150.000         154.000
  23010055.500    23010054.840    23010057.389   -16083109.979 9 -12243351.981 9
     -2382.066       -1856.143         182.000         182.000
  21450689.938    21450689.951    21450693.664   -19610330.948 9 -15268354.401 9
     -1081.551        -842.766         200.000         200.000
  21681053.641    21681053.157    21681059.305   -18131918.603 9 -14113257.470 9
      2501.000        1948.839         194.000         193.000
 11  6 30  0 36 30.0000000  0 11 19 32 31 28  3  6 11 20 22 14 24
  21577318.679    21577317.826    21577320.403   -23145508.432 9 -18025001.714 9
     -2043.580       -1592.398         204.000         203.000
  21658650.046    21658649.063    21658654.784   -19229706.885 9 -14697058.244 9
      1969.425        1534.616         197.000         198.000
  24638602.922    24638602.302    24638607.662    -2370173.355 9  -1822978.794 9
      3178.081        2476.420         146.000         149.000
  25506445.741    25506445.688    25506455.110       10711.178 9      6587.554 9
      -202.621        -156.823          74.000         117.000
  23703778.386    23703778.094    23703783.910   -10045761.818 9  -7787312.957 9
     -3423.706       -2667.823         160.000         163.000
  24332332.575    24332334.217    24332338.396    -7337140.552 9  -5702360.430 9
     -3320.765       -2587.609         146.000         151.000
  20754076.373    20754076.114    20754079.727   -23732439.880 9 -18474254.580 9
      1744.967        1359.713         209.000         210.000
  23849128.129    23849128.125    23849131.070    -5435664.670 9  -4216798.679 9
      3149.908        2454.470         152.000         155.000
  23023655.932    23023654.547    23023657.932   -16011638.278 9 -12187659.768 9
     -2384.773       -1858.252         180.000         180.000
  21456907.782    21456907.426    21456911.831   -19577655.556 9 -15242893.053 9
     -1098.854        -856.250         200.000         200.000
  21666789.358    21666789.067    21666794.575   -18206881.030 9 -14171669.736 9
      2494.457        1943.730         194.000         194.000
 11  6 30  0 37  0.0000000  0 11 19 32 31 28  3  6 11 20 22 14 24
  21589021.161    21589020.464    21589022.891   -23084011.021 9 -17977081.666 9
     -2056.850       -1602.741         203.000         204.000
  21647430.863    21647430.282    21647435.204   -19288663.548 9 -14742998.486 9
      1960.469        1527.628         198.000         198.000
  24620458.545    24620458.685    24620462.871    -2465520.781 9  -1897275.340 9
      3177.760        2476.170         145.000         149.000
                  25507639.548    25507662.844       16984.988 9     11394.950 9
      -216.217        -168.573          74.000         110.000
  23723324.631    23723324.350    23723330.218    -9943048.120 9  -7707276.336 9
     -3424.433       -2668.391         160.000         163.000
  24351288.643    24351288.117    24351295.215    -7237525.120 9  -5624738.032 9
     -3320.722       -2587.566         147.000         149.000
  20744149.630    20744149.439    20744153.307   -23784604.448 9 -18514902.293 9
      1732.034        1349.637         210.000         210.000
  23831153.565    23831152.745    23831157.565    -5530121.916 9  -4290401.722 9
      3146.635        2451.923         154.000         157.000
  23037273.044    23037272.366    23037274.568   -15940078.760 9 -12131899.123 9
     -2386.489       -1859.605         178.000         177.000
  21463225.876    21463225.515    21463229.672   -19544454.312 9 -15217021.951 9
     -1115.178        -868.970         199.000         199.000
  21652563.489    21652563.239    21652569.104   -18281638.257 9 -14229922.108 9
      2488.763        1939.288         194.000         195.000
 11  6 30  0 37 30.0000000  0 10 19 32 31  3  6 11 20 22 14 24
  21600804.596    21600803.573    21600806.354   -23022089.900 9 -17928831.446 9
     -2071.686       -1614.300         204.000         204.000
  21636267.908    21636267.291    21636271.919   -19347326.824 9 -14788710.113 9
      1949.958        1519.453         198.000         198.000
  24602320.988    24602321.570    24602326.579    -2560830.611 9  -1971542.516 9
      3175.722        2474.581         146.000         150.000
  23742878.777    23742878.965    23742883.676    -9840287.394 9  -7627203.128 9
     -3426.784       -2670.218         159.000         160.000
  24370250.086    24370249.862    24370253.281    -7137887.092 9  -5547098.003 9
     -3322.100       -2588.652         146.000         149.000
  20734301.969    20734301.527    20734305.150   -23836355.683 9 -18555227.929 9
      1717.505        1338.316         210.000         210.000
  23813202.761    23813202.211    23813205.238    -5624453.320 9  -4363906.688 9
      3141.676        2448.065         154.000         156.000
  23050905.648    23050904.841    23050907.353   -15868442.048 9 -12076078.330 9
     -2389.791       -1862.169         176.000         176.000
  21469641.541    21469641.365    21469645.501   -19510738.259 9 -15190749.698 9
     -1133.046        -882.892         199.000         199.000
  21638375.263    21638374.823    21638380.207   -18356198.272 9 -14288020.809 9
      2481.369        1933.527         195.000         195.000
 11  6 30  0 38  0.0000000  0 10 19 32 31  3  6 11 20 22 14 24
  21612668.541    21612667.386    21612670.367   -22959745.156 9 -17880251.131 9
     -2085.106       -1624.763         204.000         204.000
  21625160.821    21625159.920    21625164.942   -19405694.705 9 -14834191.561 9
      1940.755        1512.272         199.000         199.000
  24584192.681    24584193.523    24584197.885    -2656097.530 9  -2045776.283 9
      3174.867        2473.917         147.000         152.000
  23762442.820    23762442.224    23762447.246    -9737480.047 9  -7547093.507 9
     -3427.580       -2670.859         159.000         160.000
  24389214.328    24389214.397    24389219.044    -7038226.761 9  -5469440.632 9
     -3322.188       -2588.718         147.000         150.000
  20724533.629    20724533.361    20724536.744   -23887689.360 9 -18595228.200 9
      1704.211        1327.954         210.000         210.000
  23795276.578    23795276.475    23795280.027    -5718656.358 9  -4437311.637 9
      3137.998        2445.191         156.000         158.000
  23064552.355    23064551.675    23064554.775   -15796726.641 9 -12020196.212 9
     -2391.765       -1863.709         176.000         177.000
  21476155.664    21476155.586    21476159.412   -19476507.126 9 -15164076.078 9
     -1149.569        -895.771         199.000         199.000
  21624224.747    21624224.718    21624230.221   -18430557.476 9 -14345963.036 9
      2475.343        1928.835         195.000         195.000
 11  6 30  0 38 30.0000000  0 10 19 32 31  3  6 11 20 22 14 24
  21624608.609    21624607.716    21624610.513   -22896998.816 9 -17831357.884 9
     -2098.578       -1635.257         204.000         204.000
  21614105.904    21614105.405    21614110.421   -19463787.238 9 -14879458.451 9
      1931.462        1505.034         199.000         199.000
  24566068.901    24566068.956    24566073.343    -2751338.665 9  -2119990.031 9
      3173.846        2473.123         147.000         150.000
  23782010.474    23782010.146    23782016.425    -9634649.093 9  -7466965.530 9
     -3428.443       -2671.509         159.000         161.000
  24408177.896    24408177.861    24408184.980    -6938566.641 9  -5391783.355 9
     -3322.180       -2588.712         145.000         149.000
  20714841.056    20714840.933    20714844.210   -23938623.951 9 -18634917.486 9
      1690.808        1317.513         210.000         211.000
  23777371.611    23777371.111    23777374.295    -5812750.509 9  -4510631.742 9
      3134.268        2442.286         156.000         159.000
  23078210.111    23078210.078    23078212.435   -15724953.582 9 -11964269.186 9
     -2393.777       -1865.283         176.000         178.000
  21482764.082    21482763.689    21482767.131   -19441782.334 9 -15137017.793 9
     -1166.062        -908.622         199.000         199.000
  21610109.467    21610109.251    21610114.596   -18504734.477 9 -14403763.278 9
      2469.148        1924.016         195.000         196.000
 11  6 30  0 39  0.0000000  0 11 19 32 31 28  3  6 11 20 22 14 24
  21636635.208    21636634.498    21636636.971   -22833799.048 9 -17782111.315 9
     -2113.551       -1646.928         204.000         204.000
  21603114.151    21603113.258    21603118.544   -19521550.535 9 -14924468.802 9
      1920.595        1496.571         199.000         199.000
  24547961.202    24547961.820    24547965.545    -2846496.863 9  -2194139.129 9
      3171.134        2471.010         147.000         151.000
  25513240.315    25513240.367    25513240.314        6685.214 9      4256.593 9
      -274.485        -213.885          74.000          74.000
  23801593.341    23801594.046    23801598.715    -9531743.273 9  -7386779.233 9
     -3430.818       -2673.361         158.000         162.000
  24427152.898    24427152.975    24427158.547    -6838855.411 9  -5314086.268 9
     -3323.726       -2589.918         146.000         149.000
  20705235.194    20705234.641    20705238.175   -23989103.981 9 -18674252.579 9
      1675.694        1305.735         210.000         211.000
  23759497.043    23759496.326    23759500.516    -5906681.389 9  -4583824.622 9
      3128.941        2438.136         157.000         160.000
  23091889.776    23091888.781    23091891.240   -15653069.786 9 -11908255.867 9
     -2397.340       -1868.060         177.000         178.000
  21489475.722    21489475.208    21489479.133   -19406511.982 9 -15109534.390 9
     -1184.102        -922.678         199.000         199.000
  21596039.426    21596039.119    21596044.259   -18578673.887 9 -14461378.392 9
      2461.313        1917.908         196.000         196.000
 11  6 30  0 39 30.0000000  0 11 19 32 31 28  3  6 11 20 22 14 24
  21648741.828    21648741.099    21648743.528   -22770178.896 9 -17732537.173 9
     -2127.536       -1657.819         204.000         204.000
  21592178.596    21592177.929    21592183.290   -19579015.611 9 -14969246.772 9
      1910.680        1488.835         199.000         199.000
  24529863.235    24529863.883    24529868.123    -2941599.888 9  -2268245.263 9
      3169.190        2469.499         147.000         151.000
                  25514849.144    25514824.099       15139.422 9     10731.362 9
      -288.884        -224.943          74.000         131.000
  23821182.960    23821183.051    23821188.512    -9428795.841 9  -7306560.490 9
     -3432.114       -2674.374         158.000         159.000
  24446130.909    24446131.268    24446135.541    -6739126.039 9  -5236375.097 9
     -3324.311       -2590.369         144.000         148.000
  20695709.720    20695709.689    20695713.075   -24039158.683 9 -18713256.240 9
      1661.512        1294.684         210.000         211.000
  23741646.909    23741646.797    23741650.780    -6000479.247 9  -4656913.858 9
      3124.485        2434.658         157.000         159.000
  23105583.561    23105582.657    23105585.102   -15581106.960 9 -11852180.939 9
     -2399.923       -1870.070         177.000         177.000
  21496284.596    21496284.344    21496288.465   -19370728.611 9 -15081651.241 9
     -1201.178        -935.981         199.000         199.000
  21582008.862    21582008.514    21582014.063   -18652404.732 9 -14518830.992 9
      2454.310        1912.444         196.000         196.000
 11  6 30  0 40  0.0000000  0 11 19 32 31 28  3  6 11 20 22 14 24
  21660927.029    21660926.127    21660928.621   -22706146.107 9 -17682641.497 9
     -2141.628       -1668.802         204.000         203.000
  21581298.873    21581298.436    21581303.562   -19636187.919 9 -15013796.614 9
      1900.509        1480.915         198.000         198.000
  24511776.369    24511775.868    24511779.294    -3036650.183 9  -2342310.259 9
      3167.024        2467.808         147.000         150.000
                  25516538.313    25516081.429       24020.564 9     15887.336 9
      -303.489        -232.333          87.000         131.000
  23840780.547    23840779.570    23840785.500    -9325815.071 9  -7226315.772 9
     -3433.590       -2675.523         158.000         161.000
  24465109.857    24465110.518    24465115.700    -6639386.670 9  -5158656.056 9
     -3325.012       -2590.920         144.000         147.000
  20686265.096    20686264.811    20686268.350   -24088791.898 9 -18751931.478 9
      1647.039        1283.404         210.000         211.000
  23723822.870    23723822.292    23723827.865    -6094149.202 9  -4729903.435 9
      3119.833        2431.034         157.000         160.000
  23119291.285    23119290.626    23119292.741   -15509071.676 9 -11796049.557 9
     -2402.709       -1872.255         177.000         178.000
  21503190.205    21503189.728    21503194.046   -19334439.478 9 -15053373.996 9
     -1218.408        -949.404         198.000         198.000
  21568017.024    21568016.940    21568022.552   -18725931.453 9 -14576124.520 9
      2447.117        1906.841         196.000         196.000
 11  6 30  0 40 30.0000000  0 11 19 32 31 28  3  6 11 20 22 14 24
  21673192.664    21673191.556    21673194.568   -22641689.332 9 -17632415.441 9
     -2155.876       -1679.908         203.000         202.000
  21570477.424    21570476.568    21570482.369   -19693054.143 9 -15058107.946 9
      1890.180        1472.864         198.000         198.000
  24493701.619    24493701.617    24493705.339    -3131630.869 9  -2416321.011 9
      3164.510        2465.848         146.000         149.000
  25518309.371    25518310.548    25518314.688       33341.096 9     25027.099 9
      -318.197        -247.943         123.000         136.000
  23860385.097    23860385.735    23860390.622    -9222789.791 9  -7146036.337 9
     -3435.175       -2676.769         158.000         161.000
  24484094.348    24484094.456    24484100.718    -6539626.088 9  -5080920.492 9
     -3325.799       -2591.532         144.000         148.000
  20676903.280    20676902.871    20676906.278   -24137988.615 9 -18790266.581 9
      1632.350        1271.956         210.000         211.000
  23706024.418    23706024.215    23706028.968    -6187677.172 9  -4802782.372 9
      3114.925        2427.220         157.000         160.000
  23133015.440    23133014.907    23133017.486   -15436950.987 9 -11739851.632 9
     -2405.723       -1874.593         178.000         179.000
  21510194.130    21510194.023    21510198.007   -19297632.788 9 -15024693.452 9
     -1235.771        -962.943         198.000         199.000
  21554066.720    21554066.652    21554072.257   -18799238.824 9 -14633247.123 9
      2439.605        1900.981         195.000         195.000
 11  6 30  0 41  0.0000000  0 11 19 32 31 28  3  6 11 20 22 14 24
  21685537.693    21685536.652    21685539.932   -22576813.222 9 -17581862.636 9
     -2170.374       -1691.203         203.000         202.000
  21559714.135    21559713.476    21559718.739   -19749616.788 9 -15102182.725 9
      1879.520        1464.562         198.000         198.000
  24475640.049    24475640.502    24475644.597    -3226541.262 9  -2490277.031 9
      3161.587        2463.572         147.000         150.000
  25520168.531    25520166.069    25520172.891       43097.231 9     32629.238 9
      -333.290        -259.709         127.000         135.000
  23879997.625    23879997.281    23880003.488    -9119725.470 9  -7065726.519 9
     -3436.957       -2678.153         158.000         160.000
  24503082.425    24503080.257    24503086.584    -6439849.253 9  -5003172.291 9
     -3326.850       -2592.356         143.000         146.000
  20667624.230    20667624.041    20667627.555   -24186749.607 9 -18828262.157 9
      1617.244        1260.189         210.000         211.000
  23688253.085    23688252.543    23688256.593    -6281065.115 9  -4875552.205 9
      3109.731        2423.156         157.000         159.000
  23146755.302    23146754.218    23146756.793   -15364748.579 9 -11683590.040 9
     -2408.967       -1877.125         178.000         179.000
  21517296.216    21517295.843    21517300.047   -19260313.011 9 -14995613.102 9
     -1253.383        -976.665         198.000         199.000
  21540158.567    21540158.587    21540163.921   -18872327.640 9 -14690199.423 9
      2431.756        1894.871         196.000         196.000
 11  6 30  0 41 30.0000000  0 11 19 32 31 28  3  6 11 20 22 14 24
  21697961.620    21697960.795    21697964.304   -22511523.153 9 -17530987.256 9
     -2182.342       -1700.528         202.000         202.000
  21549007.851    21549007.370    21549012.405   -19805879.188 9 -15146023.552 9
      1871.271        1458.134         199.000         200.000
  24457591.789    24457592.734    24457595.697    -3321381.812 9  -2564178.645 9
      3161.006        2463.112         146.000         149.000
  25522104.916    25522105.185    25522108.607       53284.279 9     40567.183 9
      -345.839        -269.487         128.000         136.000
  23899615.703    23899616.102    23899622.929    -9016627.992 9  -6985390.925 9
     -3436.247       -2677.593         158.000         160.000
  24522070.473    24522070.733    24522075.000    -6340061.721 9  -4925415.664 9
     -3325.402       -2591.228         143.000         145.000
  20658427.873    20658427.661    20658431.127   -24235076.454 9 -18865919.444 9
      1604.514        1250.268         211.000         211.000
  23670508.083    23670508.461    23670512.323    -6374315.883 9  -4948215.110 9
      3106.930        2420.971         156.000         160.000
  23160509.128    23160508.482    23160511.572   -15292468.496 9 -11627267.927 9
     -2409.774       -1877.748         177.000         178.000
  21524494.787    21524494.021    21524498.080   -19222485.021 9 -14966136.746 9
     -1268.536        -988.475         198.000         198.000
  21526292.082    21526291.615    21526296.595   -18945199.563 9 -14746982.722 9
      2426.293        1890.615         197.000         197.000
 11  6 30  0 42  0.0000000  0 11 19 32 31 28  3  6 11 20 22 14 24
  21710459.202    21710458.404    21710461.953   -22445847.937 9 -17479811.761 9
     -2196.738       -1711.743         202.000         202.000
  21538353.706    21538353.154    21538358.244   -19861867.866 9 -15189651.077 9
      1860.572        1449.791         200.000         200.000
  24439553.913    24439553.817    24439557.469    -3416175.481 9  -2638043.649 9
      3157.825        2460.634         145.000         149.000
  25524120.528    25524121.211    25524126.138       63874.747 9     48819.485 9
      -360.909        -281.230         128.000         135.000
  23919236.597    23919236.155    23919241.668    -8913526.326 9  -6905052.041 9
     -3437.938       -2678.918         158.000         160.000
  24541055.860    24541055.549    24541063.056    -6240292.400 9  -4847673.203 9
     -3326.378       -2591.990         142.000         147.000
  20649309.618    20649309.440    20649312.678   -24282993.932 9 -18903257.741 9
      1589.260        1238.385         211.000         211.000
  23652784.740    23652784.300    23652788.262    -6467455.476 9  -5020791.429 9
      3101.602        2416.825         157.000         159.000
  23174272.863    23174272.615    23174275.972   -15220137.595 9 -11570906.217 9
     -2413.034       -1880.279         176.000         176.000
  21531784.073    21531784.121    21531787.975   -19184177.061 9 -14936286.385 9
     -1286.067       -1002.141         198.000         198.000
  21512461.175    21512460.685    21512466.419   -19017879.672 9 -14803616.551 9
      2418.284        1884.369         197.000         198.000
 11  6 30  0 42 30.0000000  0 11 19 32 31 28  3  6 11 20 22 14 24
  21723039.974    21723039.062    21723042.265   -22379736.822 9 -17428296.603 9
     -2211.176       -1722.986         202.000         202.000
  21527761.918    21527761.336    21527766.101   -19917530.318 9 -15233024.407 9
      1849.738        1441.359         201.000         201.000
  24421534.724    24421534.945    24421538.728    -3510866.582 9  -2711828.768 9
      3154.418        2457.984         147.000         150.000
  25526221.705    25526222.328    25526227.550       74919.814 9     57426.044 9
      -375.999        -292.990         126.000         134.000
  23938866.497    23938865.836    23938873.268    -8810370.566 9  -6824670.989 9
     -3439.601       -2680.211         157.000         158.000
  24560048.577    24560048.085    24560051.421    -6140491.128 9  -4769905.840 9
     -3327.299       -2592.717         139.000         142.000
  20640279.434    20640279.057    20640282.623   -24330448.036 9 -18940234.967 9
      1573.819        1226.355         211.000         211.000
  23635092.134    23635091.358    23635096.131    -6560430.523 9  -5093239.512 9
      3096.139        2412.573         156.000         159.000
  23188057.500    23188057.171    23188059.342   -15147704.519 9 -11514464.870 9
     -2416.364       -1882.878         175.000         174.000
  21539175.122    21539174.810    21539178.617   -19145338.365 9 -14906022.468 9
     -1303.701       -1015.860         198.000         198.000
  21498677.120    21498677.160    21498682.290   -19090313.880 9 -14860058.776 9
      2410.110        1878.011         197.000         198.000
 11  6 30  0 43  0.0000000  0 11 19 32 31 28  3  6 11 20 22 14 24
  21735699.186    21735698.497    21735700.999   -22313213.918 9 -17376460.570 9
     -2223.810       -1732.837         202.000         202.000
  21517227.377    21517226.941    21517231.929   -19972888.072 9 -15276160.307 9
      1840.656        1434.277         201.000         202.000
  24403531.820    24403532.419    24403536.863    -3605473.502 9  -2785548.317 9
      3152.538        2456.520         149.000         153.000
  25528407.221    25528408.708    25528412.393       86396.635 9     66368.996 9
      -389.383        -303.413         125.000         132.000
  23958502.032    23958501.821    23958506.335    -8707184.691 9  -6744266.487 9
     -3439.566       -2680.188         157.000         160.000
  24579041.785    24579041.429    24579047.169    -6040681.785 9  -4692132.179 9
     -3326.525       -2592.102         141.000         144.000
  20631333.675    20631333.379    20631336.683   -24377458.667 9 -18976866.626 9
      1560.068        1215.638         211.000         211.000
  23617426.826    23617426.019    23617430.943    -6653262.227 9  -5165575.877 9
      3092.435        2409.688         156.000         159.000
  23201856.330    23201855.329    23201857.919   -15075191.452 9 -11457961.201 9
     -2417.980       -1884.149         174.000         173.000
  21546662.499    21546662.187    21546666.027   -19105992.196 9 -14875363.109 9
     -1319.545       -1028.211         198.000         198.000
  21484936.254    21484936.216    21484941.574   -19162521.998 9 -14916324.823 9
      2403.588        1872.925         197.000         198.000
 11  6 30  0 43 30.0000000  0 11 19 32 31 28  3  6 11 20 22 14 24
  21748434.198    21748433.092    21748435.416   -22246293.429 9 -17324314.734 9
     -2237.548       -1743.536         202.000         202.000
  21506748.651    21506748.135    21506753.199   -20027953.393 9 -15319068.343 9
      1830.342        1426.239         201.000         201.000
  24385543.441    24385543.595    24385547.376    -3700005.353 9  -2859209.353 9
      3149.453        2454.118         150.000         153.000
  25530670.844    25530671.364    25530677.092       98292.197 9     75638.241 9
      -403.858        -314.697         125.000         133.000
  23978140.688    23978139.988    23978146.531    -8603982.803 9  -6663849.522 9
     -3440.551       -2680.940         155.000         158.000
  24598032.735    24598032.772    24598036.954    -5940878.667 9  -4614363.332 9
     -3326.722       -2592.262         139.000         142.000
  20622470.143    20622469.801    20622473.145   -24424036.398 9 -19013160.962 9
      1545.101        1203.977         211.000         211.000
  23599787.025    23599786.175    23599790.599    -6745961.826 9  -5237809.325 9
      3087.487        2405.830         155.000         158.000
  23215667.422    23215666.956    23215669.164   -15002611.367 9 -11401405.306 9
     -2420.684       -1886.238         174.000         174.000
  21554243.811    21554243.340    21554247.609   -19066152.530 9 -14844319.215 9
     -1336.461       -1041.390         198.000         198.000
  21471236.902    21471236.578    21471242.201   -19234514.395 9 -14972422.778 9
      2395.867        1866.903         197.000         197.000
 11  6 30  0 44  0.0000000  0 11 19 32 31 28  3  6 11 20 22 14 24
  21761244.685    21761243.712    21761245.897   -22178973.930 9 -17271857.979 9
     -2249.126       -1752.565         202.000         202.000
  21496326.648    21496325.886    21496330.494   -20082722.636 9 -15361745.668 9
      1822.189        1419.897         201.000         201.000
  24367569.860    24367570.071    24367573.151    -3794455.094 9  -2932806.416 9
      3148.359        2453.263         149.000         152.000
  25533013.615    25533011.967    25533017.382      110608.298 9     85235.147 9
      -415.903        -324.081         128.000         136.000
  23997781.847    23997782.401    23997787.691    -8500764.440 9  -6583419.618 9
     -3439.398       -2680.067         154.000         155.000
  24617023.573    24617022.454    24617028.745    -5841080.752 9  -4536598.559 9
     -3324.919       -2590.845         142.000         147.000
  20613689.959    20613689.831    20613693.164   -24470175.749 9 -19049113.710 9
      1532.108        1193.853         211.000         211.000
  23582171.598    23582170.891    23582176.590    -6838525.599 9  -5309936.907 9
      3084.650        2403.618         156.000         158.000
  23229492.793    23229491.822    23229494.606   -14929961.310 9 -11344794.895 9
     -2421.340       -1886.765         174.000         176.000
  21561919.061    21561918.892    21561922.538   -19025817.870 9 -14812889.605 9
     -1351.251       -1052.921         197.000         197.000
  21457579.030    21457578.711    21457584.539   -19306285.964 9 -15028348.660 9
      2390.146        1862.448         196.000         196.000
 11  6 30  0 44 30.0000000  0 11 19 32 31 28  3  6 11 20 22 14 24
  21774127.793    21774127.154    21774129.401   -22111270.623 9 -17219102.151 9
     -2263.410       -1763.696         202.000         202.000
  21485957.896    21485957.462    21485962.257   -20137209.066 9 -15404202.614 9
      1811.253        1411.364         200.000         200.000
  24349609.927    24349610.101    24349613.841    -3888832.420 9  -3006347.091 9
      3144.412        2450.187         148.000         152.000
  25535435.574    25535436.062    25535440.428      123330.875 9     95148.822 9
      -431.095        -335.919         129.000         135.000
  24017424.194    24017423.725    24017428.094    -8397545.048 9  -6502988.946 9
     -3440.852       -2681.193         153.000         156.000
  24636010.219    24636010.508    24636014.006    -5741303.220 9  -4458849.688 9
     -3325.747       -2591.503         139.000         144.000
  20604991.326    20604991.008    20604994.265   -24515888.088 9 -19084733.716 9
      1516.339        1181.563         211.000         212.000
  23564581.171    23564580.203    23564584.514    -6930965.890 9  -5381968.295 9
      3079.019        2399.234         156.000         158.000
  23243328.378    23243327.869    23243330.416   -14857255.162 9 -11288140.766 9
     -2424.768       -1889.415         176.000         178.000
  21569686.084    21569685.821    21569689.455   -18985002.495 9 -14781085.415 9
     -1368.789       -1066.586         197.000         197.000
  21443960.963    21443960.688    21443966.636   -19377847.981 9 -15084111.244 9
      2381.616        1855.804         196.000         196.000
 11  6 30  0 45  0.0000000  0 11 19 32 31 28  3  6 11 20 22 14 24
  21787090.936    21787089.729    21787092.712   -22043148.945 9 -17166020.319 9
     -2277.301       -1774.516         202.000         201.000
  21475650.108    21475649.881    21475654.715   -20191375.775 9 -15446410.420 9
      1800.629        1403.088         200.000         200.000
  24331671.091    24331670.973    24331675.145    -3983097.503 9  -3079800.330 9
      3140.640        2447.250         150.000         154.000
  25537938.919    25537939.006    25537945.950      136495.228 9    105406.731 9
      -445.736        -347.316         126.000         133.000
  24037072.836    24037072.992    24037077.757    -8294290.385 9  -6422530.786 9
     -3442.030       -2682.105         152.000         154.000
  24654999.265    24654999.348    24655002.968    -5641511.832 9  -4381090.030 9
     -3326.026       -2591.720         139.000         142.000
  20596381.060    20596381.031    20596384.250   -24561135.181 9 -19119991.195 9
      1500.845        1169.493         211.000         212.000
  23547021.065    23547021.494    23547024.984    -7023245.358 9  -5453874.355 9
      3073.643        2395.045         156.000         157.000
  23257181.142    23257180.848    23257183.089   -14784456.794 9 -11231414.774 9
     -2427.775       -1891.768         176.000         177.000
  21577550.832    21577550.477    21577554.915   -18943671.645 9 -14748879.553 9
     -1385.883       -1079.900         197.000         196.000
  21430390.626    21430390.170    21430395.730   -19449162.336 9 -15139680.861 9
      2373.367        1849.380         197.000         197.000
 11  6 30  0 45 30.0000000  0 11 19 32 31 28  3  6 11 20 22 14 24
  21800133.584    21800132.683    21800136.091   -21974606.259 9 -17112610.432 9
     -2291.534       -1785.612         201.000         201.000
  21465404.162    21465403.832    21465409.146   -20245217.768 9 -15488365.204 9
      1789.566        1394.474         200.000         201.000
  24313755.975    24313756.749    24313759.976    -4077242.047 9  -3153159.560 9
      3136.335        2443.888         150.000         153.000
  25540529.770    25540530.516    25540534.082      150105.369 9    116012.006 9
      -460.918        -359.161         127.000         136.000
  24056728.259    24056728.532    24056734.004    -8190998.111 9  -6342043.338 9
     -3443.479       -2683.235         151.000         153.000
  24673992.850    24673991.858    24673996.812    -5541703.551 9  -4303317.049 9
     -3326.829       -2592.343         139.000         145.000
  20587860.640    20587860.372    20587863.764   -24605910.484 9 -19154881.044 9
      1484.842        1157.022         212.000         213.000
  23529492.019    23529491.945    23529496.886    -7115358.455 9  -5525650.751 9
      3067.887        2390.563         155.000         158.000
  23271053.390    23271052.344    23271054.551   -14711561.770 9 -11174613.477 9
     -2431.206       -1894.442         176.000         176.000
  21585514.662    21585514.194    21585518.445   -18901822.295 9 -14716269.675 9
     -1403.372       -1093.530         197.000         196.000
  21416868.347    21416868.171    21416873.683   -19520222.043 9 -15195052.057 9
      2364.598        1842.546         198.000         198.000
 11  6 30  0 46  0.0000000  0 11 19 32 31 28  3  6 11 20 22 14 24
  21813250.065    21813249.438    21813252.790   -21905677.399 9 -17058899.635 9
     -2303.862       -1795.216         201.000         200.000
  21455213.959    21455213.227    21455218.881   -20298767.906 9 -15530092.570 9
      1780.320        1387.258         200.000         200.000
  24295859.154    24295860.203    24295862.666    -4171295.419 9  -3226447.789 9
      3133.717        2441.855         151.000         155.000
  25543198.998    25543197.850    25543203.025      164127.149 9    126938.002 9
      -474.081        -369.419         125.000         132.000
  24076384.927    24076384.803    24076389.649    -8087703.290 9  -6261553.862 9
     -3443.085       -2682.932         151.000         153.000
  24692982.300    24692982.193    24692985.772    -5441913.221 9  -4225558.179 9
     -3325.697       -2591.461         141.000         145.000
  20579424.231    20579423.953    20579427.185   -24650244.832 9 -19189427.293 9
      1470.614        1145.932         212.000         213.000
  23511990.101    23511989.084    23511993.492    -7207337.058 9  -5597322.376 9
      3063.904        2387.458         154.000         156.000
  23284935.881    23284934.898    23284937.955   -14638603.690 9 -11117763.043 9
     -2432.836       -1895.709         175.000         174.000
  21593570.567    21593570.249    21593573.860   -18859488.949 9 -14683282.648 9
     -1418.999       -1105.713         197.000         196.000
  21403388.884    21403388.736    21403394.305   -19591058.119 9 -15250248.982 9
      2357.611        1837.103         199.000         200.000
 11  6 30  0 46 30.0000000  0 11 19 32 31 28  3  6 11 20 22 14 24
  21826442.441    21826441.647    21826444.983   -21836352.616 9 -17004880.324 9
     -2316.965       -1805.423         200.000         200.000
  21445081.864    21445081.015    21445086.713   -20352014.177 9 -15571583.156 9
      1770.278        1379.446         200.000         200.000
  24277981.664    24277982.173    24277984.513    -4265242.472 9  -3299653.191 9
      3130.181        2439.102         152.000         155.000
  25545946.027    25545946.475    25545950.411      178570.866 9    138192.865 9
      -487.969        -380.241         126.000         135.000
  24096044.040    24096044.000    24096049.254    -7984396.338 9  -6181054.950 9
     -3443.246       -2683.038         151.000         154.000
  24711970.370    24711970.221    24711972.687    -5342131.614 9  -4147805.918 9
     -3325.230       -2591.096         137.000         143.000
  20571074.021    20571073.636    20571077.260   -24694124.933 9 -19223619.581 9
      1455.543        1134.191         212.000         213.000
  23494514.732    23494513.287    23494518.030    -7299168.821 9  -5668879.562 9
      3059.033        2383.669         153.000         156.000
  23298833.619    23298832.088    23298835.665   -14565571.342 9 -11060854.758 9
     -2435.187       -1897.538         173.000         174.000
  21601720.111    21601719.927    21601723.732   -18816661.565 9 -14649910.658 9
     -1435.344       -1118.447         196.000         196.000
  21389954.375    21389954.110    21389959.167   -19661657.102 9 -15305261.170 9
      2349.774        1830.995         200.000         200.000
 11  6 30  0 47  0.0000000  0 11 19 32 31 28  3  6 11 20 22 14 24
  21839709.801    21839709.077    21839712.078   -21766633.759 9 -16950553.938 9
     -2329.969       -1815.565         200.000         200.000
  21435007.103    21435006.295    21435011.861   -20404956.475 9 -15612836.880 9
      1760.198        1371.580         200.000         200.000
  24260125.120    24260125.000    24260128.510    -4359079.697 9  -3372772.997 9
      3126.577        2436.284         153.000         156.000
  25548775.067    25548773.256    25548781.498      193435.940 9    149776.028 9
      -502.036        -391.198         125.000         133.000
  24115703.575    24115703.352    24115710.150    -7881079.668 9  -6100548.609 9
     -3443.600       -2683.326         149.000         150.000
  24730954.024    24730956.075    24730959.416    -5242360.525 9  -4070061.879 9
     -3324.786       -2590.754         141.000         145.000
  20562810.598    20562810.446    20562813.835   -24737548.757 9 -19257456.323 9
      1440.346        1122.346         212.000         213.000
  23477066.598    23477067.295    23477070.810    -7390853.016 9  -5740321.755 9
      3054.191        2379.888         151.000         154.000
  23312745.584    23312744.245    23312747.266   -14492465.159 9 -11003888.935 9
     -2437.563       -1899.417         173.000         174.000
  21609963.422    21609963.253    21609967.121   -18773341.831 9 -14616155.022 9
     -1451.687       -1131.189         195.000         195.000
  21376565.483    21376565.246    21376570.149   -19732016.815 9 -15360086.912 9
      2341.841        1824.808         200.000         200.000
 11  6 30  0 47 30.0000000  0 11 19 32 31 28  3  6 11 20 22 14 24
  21853048.872    21853047.699    21853050.431   -21696539.362 9 -16895934.930 9
     -2343.175       -1825.855         201.000         200.000
  21424987.263    21424986.694    21424992.087   -20457611.202 9 -15653866.524 9
      1749.905        1363.551         200.000         201.000
  24242287.435    24242286.879    24242290.890    -4452820.159 9  -3445817.434 9
      3122.617        2433.206         153.000         156.000
  25551679.175    25551681.073    25551688.517      208704.227 9    161673.368 9
      -516.176        -402.221         125.000         133.000
  24135363.186    24135363.020    24135367.674    -7777772.055 9  -6020049.256 9
     -3443.874       -2683.545         149.000         151.000
  24749935.579    24749934.706    24749938.915    -5142618.739 9  -3992340.711 9
     -3324.566       -2590.579         141.000         146.000
  20554631.342    20554631.129    20554634.567   -24780530.955 9 -19290948.946 9
      1424.922        1110.325         212.000         213.000
  23459645.150    23459644.654    23459649.580    -7482405.270 9  -5811661.145 9
      3049.075        2375.901         151.000         154.000
  23326667.457    23326667.176    23326669.934   -14419301.670 9 -10946878.462 9
     -2440.201       -1901.450         173.000         174.000
  21618297.255    21618296.810    21618300.996   -18729547.607 9 -14582029.657 9
     -1468.154       -1144.021         195.000         195.000
  21363218.851    21363218.549    21363223.715   -19802152.104 9 -15414737.793 9
      2333.613        1818.393         200.000         201.000
 11  6 30  0 48  0.0000000  0 11 19 32 31 28  3  6 11 20 22 14 24
  21866457.456    21866456.565    21866458.781   -21626077.219 9 -16841029.371 9
     -2355.467       -1835.427         200.000         200.000
  21415021.235    21415020.451    21415025.801   -20509983.725 9 -15694676.278 9
      1740.433        1356.184         201.000         201.000
  24224466.212    24224466.307    24224469.962    -4546465.923 9  -3518788.064 9
      3119.235        2430.572         153.000         156.000
  25554662.612    25554661.889    25554667.634      224369.037 9    173879.719 9
      -529.317        -412.451         126.000         134.000
  24155018.892    24155019.826    24155025.928    -7674481.007 9  -5939562.702 9
     -3443.360       -2683.135         149.000         153.000
  24768907.957    24768907.205    24768912.342    -5042913.737 9  -3914648.237 9
     -3323.395       -2589.671         139.000         143.000
  20546535.317    20546535.105    20546538.642   -24823075.507 9 -19324100.545 9
      1410.210        1098.867         212.000         213.000
  23442247.780    23442247.274    23442252.600    -7573830.207 9  -5882901.313 9
      3044.737        2372.525         152.000         156.000
  23340600.154    23340598.648    23340601.430   -14346087.507 9 -10889828.502 9
     -2441.898       -1902.781         173.000         175.000
  21626720.009    21626719.389    21626724.020   -18685286.112 9 -14547540.177 9
     -1483.783       -1156.190         195.000         195.000
  21349914.468    21349914.306    21349919.568   -19872066.734 9 -15469216.727 9
      2326.166        1812.607         200.000         200.000
 11  6 30  0 48 30.0000000  0 11 19 32 31 28  3  6 11 20 22 14 24
  21879942.133    21879941.120    21879943.259   -21555214.136 9 -16785811.391 9
     -2368.028       -1845.215         200.000         200.000
  21405115.611    21405114.883    21405119.907   -20562038.622 9 -15735238.529 9
      1730.601        1348.519         202.000         202.000
  24206669.938    24206670.379    24206675.100    -4639977.783 9  -3591654.356 9
      3115.536        2427.686         153.000         155.000
  25557726.597    25557725.589    25557731.589      240464.581 9    186421.656 9
      -542.952        -423.081         127.000         136.000
  24174678.982    24174678.128    24174684.311    -7571173.650 9  -5859063.417 9
     -3443.130       -2682.957         150.000         156.000
  24787879.646    24787878.684    24787886.027    -4943212.262 9  -3836958.407 9
     -3322.497       -2588.971         136.000         140.000
  20538529.744    20538529.464    20538533.061   -24865145.206 9 -19356882.127 9
      1395.125        1087.108         212.000         213.000
  23424882.372    23424881.453    23424885.072    -7665091.850 9  -5954014.250 9
      3040.039        2368.862         155.000         158.000
  23354548.492    23354547.701    23354550.798   -14272787.664 9 -10832711.755 9
     -2444.010       -1904.433         174.000         176.000
  21635237.852    21635237.777    21635241.499   -18640523.933 9 -14512660.553 9
     -1499.679       -1168.589         195.000         195.000
  21336659.322    21336659.099    21336664.413   -19941723.433 9 -15523494.668 9
      2318.284        1806.452         199.000         199.000
 11  6 30  0 49  0.0000000  0 11 19 32 31 28  3  6 11 20 22 14 24
  21893496.819    21893496.026    21893498.107   -21483982.677 9 -16730306.364 9
     -2380.965       -1855.290         199.000         199.000
  21395264.268    21395263.852    21395268.964   -20613806.357 9 -15775577.024 9
      1720.359        1340.542         202.000         202.000
  24188895.964    24188896.778    24188899.678    -4733383.251 9  -3664437.758 9
      3111.256        2424.351         151.000         154.000
  25560863.722    25560863.456    25560867.618      256958.970 9    199274.413 9
      -556.917        -433.963         130.000         138.000
  24194332.701    24194332.448    24194338.602    -7467883.010 9  -5778577.279 9
     -3443.208       -2683.026         148.000         151.000
  24806846.511    24806845.992    24806848.568    -4843547.080 9  -3759296.956 9
     -3321.889       -2588.502         137.000         141.000
  20530609.193    20530608.768    20530612.245   -24906769.066 9 -19389316.312 9
      1379.550        1074.982         213.000         213.000
  23407540.522    23407539.782    23407544.476    -7756220.242 9  -6025023.350 9
      3034.889        2364.851         156.000         159.000
  23368507.754    23368507.079    23368509.287   -14199433.012 9 -10775552.319 9
     -2446.489       -1906.345         174.000         175.000
  21643845.039    21643844.764    21643848.935   -18595293.550 9 -14477416.101 9
     -1515.943       -1181.257         195.000         195.000
  21323447.563    21323447.378    21323452.907   -20011150.957 9 -15577594.037 9
      2309.919        1799.941         199.000         199.000
 11  6 30  0 49 30.0000000  0 11 19 32 31 28  3  6 11 20 22 14 24
  21907127.254    21907126.399    21907129.228   -21412351.875 9 -16674490.160 9
     -2395.052       -1866.274         199.000         198.000
  21385474.341    21385473.449    21385478.735   -20665253.741 9 -15815665.885 9
      1708.852        1331.577         202.000         202.000
  24171149.003    24171148.370    24171152.774    -4826646.029 9  -3737109.967 9
      3105.595        2419.941         153.000         156.000
  25564085.873    25564084.704    25564090.007      273884.089 9    212462.792 9
      -572.031        -445.750         131.000         137.000
  24213990.615    24213990.806    24213995.512    -7364578.240 9  -5698080.106 9
     -3444.429       -2683.969         148.000         151.000
  24825810.598    24825810.967    24825814.391    -4743887.169 9  -3681639.536 9
     -3322.524       -2588.990         135.000         143.000
  20522779.861    20522779.619    20522783.018   -24947912.194 9 -19421375.893 9
      1362.667        1061.820         213.000         213.000
  23390231.315    23390231.212    23390235.353    -7847181.440 9  -6095902.173 9
      3028.506        2359.862         157.000         159.000
  23382482.853    23382483.060    23382485.362   -14125991.018 9 -10718324.812 9
     -2450.239       -1909.271         173.000         173.000
  21652547.099    21652546.755    21652550.967   -18549563.433 9 -14441782.245 9
     -1533.379       -1194.838         194.000         194.000
  21310285.740    21310285.777    21310291.466   -20080314.261 9 -15631487.500 9
      2300.276        1792.425         198.000         199.000
 11  6 30  0 50  0.0000000  0 11 19 32 31 28  3  6 11 20 22 14 24
  22220621.926    22220621.172    22220624.271   -21340345.228 9 -16618381.098 9
     -2406.222       -1874.976         198.000         197.000
  21675534.356    21675533.779    21675538.923   -20716398.019 9 -15855518.567 9
      1700.207        1324.834         202.000         202.000
  24453218.921    24453219.651    24453222.477    -4919778.214 9  -3809680.402 9
      3102.704        2417.693         151.000         154.000
  25867175.331    25867174.696    25867181.522      291218.923 9    225970.443 9
      -584.349        -455.336         128.000         135.000
  24533440.435    24533439.641    24533445.989    -7261283.682 9  -5617590.782 9
     -3442.759       -2682.666         148.000         153.000
  25144561.730    25144561.564    25144562.571    -4644256.950 9  -3604005.338 9
     -3320.217       -2587.199         135.000         138.000
  20814831.520    20814831.386    20814834.604   -24988590.217 9 -19453073.057 9
      1348.585        1050.850         213.000         213.000
  23672742.429    23672741.933    23672746.301    -7937990.583 9  -6166662.501 9
      3024.939        2357.090         157.000         160.000
  23696263.240    23696262.016    23696265.754   -14052483.887 9 -10661046.556 9
     -2451.086       -1909.948         172.000         172.000
  21961132.684    21961132.511    21961136.452   -18503355.896 9 -14405776.376 9
     -1547.905       -1206.158         194.000         194.000
  21596964.544    21596964.373    21596970.357   -20149228.159 9 -15685186.636 9
      2293.400        1787.064         199.000         199.000
 11  6 30  0 50 30.0000000  0 11 19 32 31 28  3  6 11 20 22 14 24
  22234394.921    22234394.061    22234397.505   -21267968.464 9 -16561983.632 9
     -2418.715       -1884.719         198.000         198.000
  21665857.188    21665856.809    21665862.148   -20767250.488 9 -15895143.860 9
      1690.176        1317.021         202.000         202.000
  24435519.927    24435519.788    24435523.078    -5012790.712 9  -3882157.612 9
      3098.304        2414.264         153.000         156.000
  25870549.054    25870550.370    25870554.639      308955.373 9    239791.026 9
      -598.028        -465.997         129.000         136.000
  24553095.311    24553094.647    24553099.424    -7158002.777 9  -5537112.132 9
     -3442.414       -2682.403         149.000         154.000
  25163514.451    25163513.719    25163519.258    -4544659.923 9  -3526396.882 9
     -3319.204       -2586.401         141.000         150.000
  20807177.522    20807177.233    20807180.388   -25028812.795 9 -19484415.324 9
      1333.074        1038.755         213.000         214.000
  23655489.727    23655488.538    23655492.572    -8028661.040 9  -6237314.786 9
      3019.953        2353.209         159.000         162.000
  23710263.452    23710262.966    23710265.925   -13978915.041 9 -10603720.210 9
     -2453.327       -1911.701         171.000         172.000
  21970015.466    21970014.863    21970018.867   -18456677.840 9 -14369403.870 9
     -1563.763       -1218.509         194.000         195.000
  21583896.179    21583896.071    21583901.793   -20217903.485 9 -15738699.869 9
      2285.109        1780.607         199.000         200.000
 11  6 30  0 51  0.0000000  0 11 19 32 31 28  3  6 11 20 22 14 24
  22248240.456    22248239.408    22248242.809   -21195212.104 9 -16505290.376 9
     -2431.977       -1895.046         198.000         199.000
  21656238.875    21656238.058    21656243.414   -20817795.987 9 -15934529.952 9
      1679.284        1308.531         202.000         202.000
  24417846.048    24417846.926    24417850.489    -5105663.256 9  -3954525.751 9
      3092.901        2410.054         153.000         157.000
  25874004.525    25874003.515    25874006.433      327105.221 9    253933.759 9
      -612.230        -477.065         127.000         133.000
  24572746.601    24572746.957    24572752.396    -7054727.572 9  -5456637.591 9
     -3442.875       -2682.770         149.000         153.000
  25182460.171    25182458.734    25182465.794    -4445087.657 9  -3448807.825 9
     -3318.932       -2586.187         137.000         138.000
  20799613.345    20799613.132    20799616.248   -25068562.860 9 -19515389.400 9
      1316.666        1025.977         213.000         214.000
  23638264.800    23638264.055    23638268.494    -8119175.738 9  -6307845.702 9
      3014.089        2348.642         160.000         162.000
  23724277.166    23724276.240    23724278.818   -13905273.473 9 -10546337.197 9
     -2456.390       -1914.073         170.000         172.000
  21978989.616    21978989.107    21978992.913   -18409518.852 9 -14332656.606 9
     -1580.428       -1231.507         194.000         194.000
  21570876.382    21570876.056    21570882.175   -20286322.423 9 -15792013.313 9
      2275.883        1773.418         200.000         200.000
 11  6 30  0 51 30.0000000  0 11 19 32 31 28  3  6 11 20 22 14 24
  22262156.200    22262155.260    22262158.436   -21122085.059 9 -16448308.273 9
     -2442.488       -1903.238         199.000         199.000
  21646677.499    21646676.753    21646682.138   -20868040.960 9 -15973681.876 9
      1671.088        1302.141         202.000         202.000
  24400199.254    24400199.264    24400202.784    -5198399.220 9  -4026787.503 9
      3090.173        2407.929         154.000         158.000
  25877534.097    25877532.707    25877539.563      345660.251 9    268392.200 9
      -623.970        -486.213         124.000         132.000
  24592395.194    24592394.964    24592401.817    -6951467.196 9  -5376174.398 9
     -3440.520       -2680.937         148.000         153.000
  25201402.993    25201404.079    25201408.480    -4345549.487 9  -3371245.211 9
     -3316.059       -2583.955         137.000         143.000
  20792137.984    20792137.876    20792141.199   -25107845.639 9 -19545999.363 9
      1302.855        1015.205         213.000         214.000
  23621069.435    23621068.960    23621072.294    -8209540.730 9  -6378259.931 9
      3010.901        2346.150         161.000         163.000
  23738302.656    23738301.942    23738303.099   -13831566.824 9 -10488903.485 9
     -2456.729       -1914.333         169.000         169.000
  21988053.320    21988052.875    21988057.258   -18361887.390 9 -14295541.180 9
     -1594.329       -1242.341         194.000         194.000
  21557905.324    21557904.825    21557910.332   -20354489.694 9 -15845130.663 9
      2269.284        1768.264         201.000         202.000
 11  6 30  0 52  0.0000000  0 11 19 32 31 28  3  6 11 20 22 14 24
  22276140.399    22276139.394    22276142.795   -21048598.097 9 -16391045.706 9
     -2456.641       -1914.272         199.000         199.000
  21637171.439    21637171.138    21637176.288   -20917993.932 9 -16012606.265 9
      1659.129        1292.824         202.000         202.000
  24382576.382    24382576.719    24382581.069    -5291003.551 9  -4098946.659 9
      3083.498        2402.715         154.000         157.000
  25881142.542    25881142.271    25881144.503      364610.723 9    283158.778 9
      -639.269        -498.136         125.000         133.000
  24612039.325    24612039.540    24612045.027    -6848232.801 9  -5295731.640 9
     -3441.815       -2681.946         148.000         152.000
  25220335.275    25220336.895    25220338.713    -4246055.570 9  -3293717.333 9
     -3316.686       -2584.438         135.000         141.000
  20784750.550    20784750.200    20784753.363   -25146667.713 9 -19576250.326 9
      1285.271        1001.505         213.000         214.000
  23603899.096    23603899.113    23603904.436    -8299763.071 9  -6448563.020 9
      3003.933        2340.734         160.000         162.000
  23752339.030    23752338.403    23752341.112   -13757804.037 9 -10431426.003 9
     -2460.792       -1917.518         168.000         168.000
  21997205.414    21997204.593    21997209.096   -18313793.721 9 -14258065.599 9
     -1611.920       -1256.052         193.000         194.000
  21544979.807    21544979.655    21544985.032   -20422411.951 9 -15898057.089 9
      2258.857        1760.152         201.000         202.000
 11  6 30  0 52 30.0000000  0 11 19 32 31 28  3  6 11 20 22 14 24
  22290194.490    22290193.255    22290196.576   -20974743.649 9 -16333496.790 9
     -2468.768       -1923.714         199.000         199.000
  21627723.202    21627722.631    21627727.904   -20967644.827 9 -16051295.268 9
      1649.178        1285.079         201.000         201.000
  24364981.883    24364982.496    24364987.532    -5383462.776 9  -4170992.784 9
      3078.637        2398.944         154.000         157.000
  25884824.299    25884820.869    25884830.344      383965.071 9    298240.088 9
      -652.682        -508.587         122.000         130.000
  24631681.884    24631679.984    24631686.392    -6745016.640 9  -5215303.116 9
     -3441.012       -2681.309         148.000         151.000
  25239260.245    25239260.298    25239266.613    -4146598.337 9  -3216217.954 9
     -3315.378       -2583.433         133.000         137.000
  20777452.894    20777452.571    20777455.556   -25185017.578 9 -19606133.348 9
      1269.591         989.293         213.000         214.000
  23586760.342    23586759.164    23586764.282    -8389832.514 9  -6518746.956 9
      2998.942        2336.842         161.000         162.000
  23766389.080    23766386.967    23766390.595   -13683975.472 9 -10373897.282 9
     -2462.885       -1919.131         168.000         170.000
  22006446.636    22006446.656    22006450.658   -18265229.839 9 -14220223.621 9
     -1627.440       -1268.125         194.000         194.000
  21532103.141    21532103.127    21532108.837   -20490077.441 9 -15950783.443 9
      2250.376        1753.548         202.000         202.000
 11  6 30  0 53  0.0000000  0 11 19 32 31 28  3  6 11 20 22 14 24
  22304319.199    22304318.119    22304321.168   -20900515.312 9 -16275656.538 9
     -2479.743       -1932.271         198.000         197.000
  21618334.079    21618333.670    21618338.685   -21016985.179 9 -16089742.287 9
      1640.267        1278.127         201.000         202.000
  24347417.945    24347418.492    24347422.679    -5475765.116 9  -4242916.643 9
      3074.812        2395.956         156.000         160.000
  25888584.817    25888582.996    25888589.699      403730.522 9    313641.699 9
      -664.974        -518.161         121.000         131.000
  24651319.190    24651318.619    24651324.555    -6641812.485 9  -5134884.130 9
     -3439.176       -2679.878         149.000         152.000
  25258181.453    25258183.252    25258185.688    -4047170.889 9  -3138741.765 9
     -3312.841       -2581.442         135.000         143.000
  20770246.826    20770246.581    20770249.743   -25222885.471 9 -19635640.802 9
      1254.950         977.883         213.000         214.000
  23569652.060    23569651.501    23569655.634    -8479740.424 9  -6588805.037 9
      2994.961        2333.733         160.000         163.000
  23780452.058    23780450.620    23780453.296   -13610073.165 9 -10316311.109 9
     -2463.860       -1919.896         169.000         171.000
  22015778.954    22015778.417    22015782.621   -18216189.276 9 -14182010.197 9
     -1641.867       -1279.383         194.000         194.000
  21519278.074    21519277.907    21519283.142   -20557475.735 9 -16003301.592 9
      2242.894        1747.710         202.000         202.000
 11  6 30  0 53 30.0000000  0 12 19 32 31 28  3  6 11 20 22 14 24 23
  22318508.769    22318508.280    22318511.303   -20825947.396 9 -16217551.678 9
     -2491.138       -1941.138         197.000         196.000
  21608998.372    21608997.755    21609002.495   -21066047.282 9 -16127972.498 9
      1630.869        1270.806         202.000         202.000
  24329878.355    24329878.809    24329880.965    -5567939.500 9  -4314740.793 9
      3070.359        2392.487         156.000         159.000
  25892418.983    25892419.975    25892421.841      423873.079 9    329337.191 9
      -677.679        -528.053         120.000         128.000
  24670948.900    24670948.737    24670957.268    -6538655.029 9  -5054501.522 9
     -3437.647       -2678.675         147.000         149.000
  25277088.337    25277087.274    25277095.709    -3947808.173 9  -3061316.079 9
     -3310.807       -2579.856         132.000         137.000
  20763126.381    20763126.448    20763129.844   -25260301.547 9 -19664796.186 9
      1239.750         966.044         213.000         214.000
  23552567.505    23552566.283    23552570.493    -8569517.771 9  -6658761.396 9
      2990.512        2330.276         161.000         163.000
  23794522.459    23794521.601    23794524.992   -13536129.911 9 -10258693.022 9
     -2465.379       -1921.079         170.000         172.000
  22025195.365    22025194.754    22025198.770   -18166706.215 9 -14143451.969 9
     -1656.712       -1290.939         194.000         194.000
  21506497.584    21506497.444    21506502.832   -20624637.376 9 -16055635.334 9
      2234.833        1741.427         202.000         203.000
                  25842713.627    25847201.055     -359042.350 9   -244139.428 9
      3906.649        3046.443          74.000         110.000
 11  6 30  0 54  0.0000000  0 12 19 32 31 28  3  6 11 20 22 14 24 23
  22332766.118    22332765.119    22332768.169   -20751025.708 9 -16159171.154 9
     -2503.132       -1950.496         196.000         195.000
  21599718.217    21599717.524    21599722.626   -21114814.570 9 -16165972.975 9
      1620.781        1262.942         202.000         203.000
  24312366.170    24312365.834    24312369.177    -5659965.858 9  -4386449.597 9
      3065.156        2388.434         157.000         160.000
  25896325.223    25896326.152    25896330.748      444407.969 9    345338.392 9
      -690.850        -538.320         121.000         132.000
  24690573.616    24690572.713    24690581.730    -6435529.508 9  -4974143.912 9
     -3436.801       -2678.020         148.000         154.000
  25295986.605    25295988.209    25295993.653    -3848495.494 9  -2983929.464 9
     -3309.336       -2578.702         134.000         142.000
  20756095.921    20756095.794    20756099.217   -25297247.817 9 -19693585.482 9
      1223.819         953.622         213.000         214.000
  23535511.354    23535510.081    23535515.236    -8659147.029 9  -6728602.361 9
      2985.285        2326.200         161.000         163.000
  23808605.164    23808604.269    23808606.599   -13462129.319 9 -10201030.241 9
     -2467.500       -1922.747         171.000         171.000
  22034698.195    22034697.917    22034702.250   -18116765.740 9 -14104537.312 9
     -1672.172       -1302.999         193.000         193.000
  21493765.625    21493765.642    21493770.907   -20691543.945 9 -16107770.317 9
      2226.077        1734.602         203.000         203.000
                  25820418.869    25826851.850      -99977.156 9    -35685.911 9
      3906.505        3043.953          74.000          74.000
 11  6 30  0 54 30.0000000  0 12 19 32 31 28  3  6 11 20 22 14 24 23
  22347092.963    22347091.790    22347093.899   -20675739.859 9 -16100506.867 9
     -2515.247       -1959.939         196.000         196.000
  21590496.420    21590495.902    21590500.983   -21163274.303 9 -16203733.800 9
      1610.560        1254.978         203.000         203.000
  24294884.847    24294885.896    24294888.202    -5751828.233 9  -4458030.627 9
      3059.625        2384.116         158.000         159.000
  25900309.838    25900310.914    25900313.499      465346.290 9    361653.938 9
      -704.405        -548.881         122.000         131.000
  24710193.550    24710193.065    24710197.819    -6332426.005 9  -4893803.503 9
     -3436.129       -2677.505         147.000         150.000
  25314877.898    25314877.524    25314882.664    -3749222.245 9  -2906573.619 9
     -3307.935       -2577.611         130.000         135.000
  20749157.332    20749157.089    20749160.659   -25333710.317 9 -19721997.822 9
      1207.659         941.035         213.000         214.000
  23518486.299    23518485.326    23518489.539    -8748615.387 9  -6798317.954 9
      2979.894        2321.995         162.000         165.000
  23822699.547    23822699.272    23822701.680   -13388059.792 9 -10143313.740 9
     -2469.785       -1924.506         170.000         170.000
  22044291.006    22044290.647    22044294.491   -18066357.242 9 -14065257.962 9
     -1687.737       -1315.120         193.000         193.000
  21481085.238    21481084.943    21481090.459   -20758180.996 9 -16159695.281 9
      2217.061        1727.580         203.000         203.000
  25798116.154    25798120.884    25798129.843     -217153.786 9   -152863.595 9
      3906.100        3043.609          74.000         115.000
 11  6 30  0 55  0.0000000  0 12 19 32 31 28  3  6 11 20 22 14 24 23
  22361487.515    22361486.605    22361488.781   -20600095.315 9 -16041563.072 9
     -2527.451       -1969.437         195.000         195.000
  21581332.733    21581332.361    21581337.098   -21211429.625 9 -16241257.425 9
      1600.131        1246.857         203.000         203.000
  24277435.369    24277435.688    24277439.013    -5843525.973 9  -4529483.404 9
      3053.775        2379.560         158.000         161.000
  25904370.804    25904369.378    25904378.909      486683.590 9    378280.376 9
      -717.930        -559.422         120.000         131.000
  24729809.563    24729809.636    24729810.691    -6229349.305 9  -4813483.833 9
     -3435.455       -2676.995         146.000         151.000
  25333759.986    25333759.594    25333764.429    -3649993.750 9  -2829252.692 9
     -3306.699       -2576.650         132.000         139.000
  20742310.492    20742310.438    20742313.806   -25369690.576 9 -19750034.389 9
      1191.296         928.288         213.000         214.000
  23501490.795    23501490.353    23501494.594    -8837925.101 9  -6867909.915 9
      2974.343        2317.663         162.000         164.000
  23836807.960    23836805.845    23836808.696   -13313924.365 9 -10085545.887 9
     -2472.277       -1926.451         167.000         166.000
  22053971.304    22053971.018    22053975.148   -18015485.767 9 -14025617.850 9
     -1703.424       -1327.343         193.000         192.000
  21468455.762    21468455.322    21468460.671   -20824549.543 9 -16211411.022 9
      2207.797        1720.367         203.000         203.000
  25775818.943    25775825.027    25775847.674     -334319.248 9   -244157.765 9
      3905.338        3043.007          74.000         114.000
 11  6 30  0 55 30.0000000  0 11 19 32 31 28  3  6 11 20 22 14 24
  22375945.240    22375944.708    22375946.702   -20524118.517 9 -15982360.384 9
     -2538.350       -1977.928         195.000         196.000
  21572222.524    21572221.999    21572227.045   -21259304.871 9 -16278562.806 9
      1590.897        1239.666         203.000         204.000
  24260013.334    24260012.927    24260017.349    -5935079.957 9  -4600824.135 9
      3049.040        2375.884         158.000         161.000
  25908501.523    25908501.307    25908507.297      508394.014 9    395197.555 9
      -730.208        -568.997         124.000         131.000
  24749413.404    24749413.115    24749417.469    -6126326.197 9  -4733205.912 9
     -3433.459       -2675.437         147.000         151.000
  25352630.319    25352630.304    25352634.115    -3550836.194 9  -2751987.145 9
     -3304.181       -2574.683         131.000         137.000
  20735551.108    20735550.953    20735554.378   -25405211.508 9 -19777713.040 9
      1176.070         916.427         213.000         214.000
  23484521.931    23484522.355    23484526.120    -8927099.918 9  -6937396.771 9
      2969.935        2314.233         163.000         165.000
  23850921.908    23850920.161    23850924.352   -13239747.979 9 -10027746.130 9
     -2473.515       -1927.422         164.000         164.000
  22063735.058    22063734.881    22063738.675   -17964177.485 9 -13985637.376 9
     -1717.829       -1338.571         193.000         193.000
  21455872.956    21455872.724    21455877.808   -20890672.189 9 -16262935.155 9
      2199.674        1714.035         203.000         203.000
 11  6 30  0 56  0.0000000  0 12 19 32 31 28  3  6 11 20 22 14 24 23
  22390470.089    22390469.376    22390471.677   -20447789.894 9 -15922883.538 9
     -2549.499       -1986.621         195.000         195.000
  21563169.892    21563169.286    21563174.236   -21306878.072 9 -16315632.830 9
      1581.392        1232.252         204.000         204.000
  24242623.444    24242624.138    24242627.085    -6026464.673 9  -4672032.996 9
      3043.917        2371.883         159.000         161.000
  25912710.033    25912705.208    25912714.992      530498.200 9    412421.579 9
      -742.879        -578.863         124.000         131.000
  24769011.258    24769010.744    24769018.254    -6023337.156 9  -4652954.495 9
     -3431.801       -2674.138         147.000         148.000
  25371488.455    25371488.523    25371491.027    -3451729.732 9  -2674761.346 9
     -3301.890       -2572.905         129.000         136.000
  20728883.797    20728883.426    20728886.754   -25440248.951 9 -19805014.945 9
      1160.481         904.272         213.000         214.000
  23467582.613    23467581.157    23467586.233    -9016117.098 9  -7006760.791 9
      2965.264        2310.576         164.000         166.000
  23865048.422    23865048.131    23865050.656   -13165509.018 9  -9969897.612 9
     -2475.017       -1928.602         162.000         164.000
  22073585.379    22073585.161    22073588.645   -17912412.456 9 -13945300.984 9
     -1732.456       -1349.971         193.000         192.000
  21443341.504    21443341.368    21443346.669   -20956525.030 9 -16314249.042 9
      2191.226        1707.445         202.000         202.000
  25731228.293    25731234.241    25731392.447      -92536.259 9    -43286.696 9
      3905.799        3043.479          74.000          74.000
 11  6 30  0 56 30.0000000  0 12 19 32 31 28  3  6 11 20 22 14 24 23
  22405061.747    22405060.983    22405063.541   -20371110.520 9 -15863133.382 9
     -2562.360       -1996.634         195.000         195.000
  21554174.781    21554174.177    21554178.706   -21354148.367 9 -16352466.826 9
      1570.066        1223.434         205.000         205.000
  24225266.581    24225267.435    24225270.263    -6117676.338 9  -4743106.999 9
      3036.865        2366.396         159.000         163.000
  25916990.578    25916990.708    25916995.398      552995.302 9    429951.787 9
      -757.076        -589.934         121.000         130.000
  24788603.609    24788602.608    24788608.783    -5920383.340 9  -4572730.624 9
     -3431.732       -2674.079         147.000         151.000
  25390339.098    25390336.518    25390344.722    -3352675.474 9  -2597576.271 9
     -3301.383       -2572.507         130.000         138.000
  20722308.719    20722308.596    20722311.759   -25474800.706 9 -19831938.390 9
      1143.047         890.688         213.000         214.000
  23450672.906    23450672.566    23450676.920    -9104975.179 9  -7076000.852 9
      2958.715        2305.492         165.000         167.000
  23879188.107    23879187.595    23879189.988   -13091207.303 9  -9912000.219 9
     -2478.369       -1931.200         163.000         165.000
  22083522.897    22083522.457    22083526.466   -17860191.785 9 -13904609.551 9
     -1748.839       -1362.735         193.000         193.000
  21430861.690    21430861.483    21430867.156   -21022105.230 9 -16365350.489 9
      2180.887        1699.395         202.000         203.000
                  25708941.894    25709287.216     -209683.274 9   -133049.513 9
      3904.081        3042.108          74.000         110.000
 11  6 30  0 57  0.0000000  0 12 19 32 31 28  3  6 11 20 22 14 24 23
  22419718.005    22419717.386    22419720.459   -20294090.718 9 -15803117.953 9
     -2573.291       -2005.162         195.000         196.000
  21545235.409    21545234.732    21545239.840   -21401123.545 9 -16389070.861 9
      1560.602        1216.053         205.000         204.000
  24207942.428    24207942.337    24207945.251    -6208719.177 9  -4814049.451 9
      3031.630        2362.307         160.000         161.000
  25921344.568    25921344.590    25921348.533      575875.878 9    447780.786 9
      -769.422        -599.554         121.000         130.000
  24808185.447    24808183.760    24808189.837    -5817475.105 9  -4492542.411 9
     -3429.819       -2672.590         145.000         146.000
  25409176.858    25409176.680    25409180.983    -3253683.315 9  -2520439.573 9
     -3298.802       -2570.488         130.000         136.000
  20715825.206    20715824.976    20715827.938   -25508873.185 9 -19858488.377 9
      1127.438         878.520         213.000         214.000
  23433793.296    23433792.443    23433796.941    -9193680.957 9  -7145122.209 9
      2953.992        2301.824         165.000         167.000
  23893337.326    23893336.748    23893340.409   -13016850.876 9  -9854060.172 9
     -2479.768       -1932.281         165.000         167.000
  22093545.007    22093544.736    22093548.540   -17807525.116 9 -13863570.593 9
     -1763.285       -1373.984         193.000         193.000
  21418433.439    21418433.054    21418438.195   -21087418.814 9 -16416244.178 9
      2172.322        1692.717         203.000         203.000
  25686642.182    25686651.593    25686645.587     -326819.526 9   -225846.638 9
      3904.028        3042.533          74.000         132.000
 11  6 30  0 57 30.0000000  0 12 19 32 31 28  3  6 11 20 22 14 24 23
  22434437.695    22434436.668    22434440.172   -20216738.974 9 -15742843.877 9
     -2584.130       -2013.618         196.000         196.000
  21536351.129    21536350.601    21536355.736   -21447809.867 9 -16425449.812 9
      1551.192        1208.721         204.000         204.000
  24190648.257    24190649.012    24190651.306    -6299595.854 9  -4884862.432 9
      3026.182        2358.074         159.000         162.000
  25925770.041    25925771.099    25925776.943      599132.481 9    465902.793 9
      -781.747        -609.165         121.000         130.000
  24827757.860    24827756.706    24827762.634    -5714620.772 9  -4412396.189 9
     -3427.746       -2670.967         145.000         147.000
  25428000.382    25427999.227    25428004.506    -3154761.464 9  -2443357.645 9
     -3296.325       -2568.562         129.000         136.000
  20709431.875    20709431.567    20709434.693   -25542471.218 9 -19884668.660 9
      1111.774         866.317         214.000         214.000
  23416941.365    23416940.261    23416944.615    -9282240.092 9  -7214129.297 9
      2949.293        2298.152         166.000         166.000
  23907496.546    23907495.549    23907499.436   -12942446.025 9  -9796082.386 9
     -2481.194       -1933.400         167.000         169.000
  22103650.640    22103650.371    22103654.024   -17754420.517 9 -13822190.392 9
     -1777.652       -1385.191         193.000         193.000
  21406054.556    21406054.098    21406059.715   -21152469.907 9 -16466933.329 9
      2163.743        1686.033         203.000         203.000
  25664355.563    25664358.570    25664472.820     -443949.183 9    -35562.696 9
      3903.951        3042.039          74.000          74.000
 11  6 30  0 58  0.0000000  0 12 19 32 31 28  3  6 11 20 22 14 24 23
  22449221.721    22449220.663    22449224.074   -20139049.431 9 -15682306.577 9
     -2595.360       -2022.352         196.000         197.000
  21527523.644    21527522.840    21527528.151   -21494198.838 9 -16461597.055 9
      1541.267        1200.989         204.000         204.000
  24173388.811    24173389.185    24173392.346    -6390294.216 9  -4955536.454 9
      3020.177        2353.386         158.000         160.000
  25930267.288    25930265.667    25930271.341      622771.772 9    484322.951 9
      -794.442        -619.047         122.000         131.000
  24847322.376    24847320.581    24847327.760    -5611813.867 9  -4332286.931 9
     -3426.225       -2669.785         144.000         147.000
  25446814.920    25446811.420    25446816.336    -3055903.527 9  -2366325.511 9
     -3294.119       -2566.842         131.000         138.000
  20703130.444    20703130.057    20703133.339   -25575584.840 9 -19910471.488 9
      1095.595         853.715         214.000         214.000
  23400117.484    23400116.903    23400121.391    -9370643.927 9  -7283015.396 9
      2944.094        2294.094         165.000         168.000
  23921665.904    23921665.518    23921668.102   -12867985.285 9  -9738061.056 9
     -2483.056       -1934.850         168.000         169.000
  22113840.496    22113839.934    22113844.256   -17700871.580 9 -13780463.946 9
     -1792.445       -1396.704         193.000         193.000
  21393727.456    21393726.830    21393732.665   -21217248.416 9 -16517410.084 9
      2154.628        1678.935         203.000         204.000
  25642071.182    25642072.855    25642087.504     -561061.343 9   -126818.246 9
      3903.311        3041.446          74.000          85.000
 11  6 30  0 58 30.0000000  0 12 19 32 31 28  3  6 11 20 22 14 24 23
  22464071.747    22464070.862    22464074.442   -20061009.884 9 -15621496.542 9
     -2606.823       -2031.286         196.000         197.000
  21518755.186    21518754.748    21518759.917   -21540276.393 9 -16497501.645 9
      1531.021        1193.009         204.000         204.000
  24156166.646    24156166.383    24156169.428    -6480796.837 9  -5026057.941 9
      3013.735        2348.369         158.000         160.000
  25934840.635    25934839.720    25934842.544      646806.304 9    503051.101 9
      -807.617        -629.302         119.000         128.000
  24866878.983    24866878.707    24866883.133    -5509042.595 9  -4252205.475 9
     -3424.763       -2668.644         142.000         147.000
  25465615.226    25465614.831    25465619.890    -2957097.541 9  -2289333.873 9
     -3292.152       -2565.300         126.000         133.000
  20696923.799    20696923.706    20696927.357   -25608198.320 9 -19935884.589 9
      1079.062         840.836         213.000         214.000
  23383328.204    23383327.096    23383332.136    -9458876.898 9  -7351768.332 9
      2938.564        2289.790         165.000         166.000
  23935849.719    23935848.252    23935851.200   -12793454.629 9  -9679985.250 9
     -2485.226       -1936.540         168.000         170.000
  22124117.177    22124117.207    22124121.017   -17646866.321 9 -13738381.931 9
     -1807.486       -1408.425         193.000         193.000
  21381455.309    21381455.234    21381460.562   -21281738.315 9 -16567661.947 9
      2145.107        1671.513         204.000         204.000
  25619794.110    25619793.489    25619840.625     -678140.131 9   -218047.163 9
      3902.358        3040.753          74.000         107.000
 11  6 30  0 59  0.0000000  0 12 19 32 31 28  3  6 11 20 22 14 24 23
  22478980.428    22478979.852    22478983.203   -19982663.396 9 -15560447.329 9
     -2616.978       -2039.211         196.000         197.000
  21510038.700    21510038.293    21510043.007   -21586083.377 9 -16533195.392 9
      1522.056        1186.007         204.000         205.000
  24138974.766    24138975.459    24138977.744    -6571141.029 9  -5096456.011 9
      3008.429        2344.227         158.000         160.000
  25939481.871    25939482.044    25939485.455      671193.760 9    522054.230 9
      -819.105        -638.268         115.000         126.000
  24886420.989    24886420.672    24886424.827    -5406349.727 9  -4172185.110 9
     -3422.086       -2666.565         142.000         146.000
  25484398.955    25484399.438    25484403.074    -2858385.970 9  -2212415.913 9
     -3289.088       -2562.932         131.000         139.000
  20690805.457    20690805.347    20690808.794   -25640350.896 9 -19960938.542 9
      1063.717         828.867         213.000         214.000
  23366562.273    23366562.047    23366566.059    -9546979.195 9  -7420419.462 9
      2934.242        2286.423         165.000         166.000
  23950038.137    23950036.437    23950040.128   -12718895.173 9  -9621886.995 9
     -2486.235       -1937.329         167.000         168.000
  22134473.020    22134472.538    22134477.026   -17592447.329 9 -13695977.525 9
     -1821.191       -1419.116         193.000         192.000
  21369230.983    21369230.668    21369235.857   -21345978.358 9 -16617719.121 9
      2136.806        1665.040         204.000         204.000
  25597511.869    25597515.897    25597600.843     -795224.015 9    -28065.384 9
      3902.462        3040.879          74.000          74.000
 11  6 30  0 59 30.0000000  0 12 19 32 31 28  3  6 11 20 22 14 24 23
  22493950.652    22493949.614    22493952.896   -19903995.478 9 -15499147.646 9
     -2627.555       -2047.442         196.000         196.000
  21501376.790    21501375.972    21501381.128   -21631602.636 9 -16568664.937 9
      1512.555        1178.613         205.000         205.000
  24121816.929    24121817.693    24121820.218    -6661306.619 9  -5166714.876 9
      3002.546        2339.631         159.000         162.000
  25944194.926    25944194.841    25944199.805      695949.395 9    541344.296 9
      -831.326        -647.780         115.000         127.000
  24905950.079    24905950.993    24905956.457    -5303720.606 9  -4092214.330 9
     -3419.829       -2664.800         141.000         147.000
  25503167.779    25503167.361    25503170.427    -2759754.099 9  -2135559.942 9
     -3286.230       -2560.695         126.000         133.000
  20684778.391    20684777.908    20684781.446   -25672024.420 9 -19985619.211 9
      1047.822         816.488         213.000         214.000
  23349825.028    23349824.583    23349828.456    -9634933.613 9  -7488955.354 9
      2929.359        2282.620         164.000         166.000
  23964233.617    23964233.062    23964235.564   -12644290.721 9  -9563753.669 9
     -2487.500       -1938.309         165.000         167.000
  22144910.039    22144909.714    22144914.257   -17537599.896 9 -13653239.269 9
     -1835.345       -1430.135         192.000         192.000
  21357057.389    21357057.342    21357062.739   -21409949.819 9 -16667567.012 9
      2127.902        1658.105         204.000         204.000
  25575232.208    25575238.250    25575244.917     -912293.777 9   -119287.692 9
      3902.189        3040.634          74.000          96.000
 11  6 30  1  0  0.0000000  0 12 19 32 31 28  3  6 11 20 22 14 24 23
  22508987.228    22508986.498    22508989.378   -19824977.765 9 -15437575.390 9
     -2639.769       -2056.963         196.000         195.000
  21492774.877    21492774.327    21492779.407   -21676803.994 9 -16603886.773 9
      1501.376        1169.900         205.000         205.000
  24104699.621    24104699.815    24104702.865    -6751259.325 9  -5236807.889 9
      2994.842        2333.642         159.000         161.000
  25948981.233    25948979.717    25948984.070      721102.442 9    560944.049 9
      -845.012        -658.453         118.000         129.000
  24925472.180    24925473.084    24925476.499    -5201127.150 9  -4012271.460 9
     -3419.159       -2664.278         139.000         144.000
  25521928.580    25521927.874    25521932.295    -2661173.256 9  -2058743.612 9
     -3285.023       -2559.757         129.000         137.000
  20678848.521    20678848.417    20678851.736   -25703186.208 9 -20009901.118 9
      1030.149         802.711         213.000         215.000
  23333122.438    23333121.396    23333126.116    -9722708.628 9  -7557351.455 9
      2922.787        2277.496         165.000         167.000
  23978445.256    23978444.127    23978446.016   -12569611.089 9  -9505561.775 9
     -2490.614       -1940.748         164.000         165.000
  22155434.179    22155433.766    22155438.061   -17482295.050 9 -13610144.590 9
     -1851.137       -1442.446         192.000         192.000
  21344941.465    21344941.208    21344946.677   -21473619.909 9 -16717180.072 9
      2117.265        1649.814         204.000         204.000
  25552964.197    25552969.514    25553023.769    -1029316.714 9   -210472.593 9
      3899.896        3038.837          74.000         111.000
 11  6 30  1  0 30.0000000  0 12 19 32 31 28  3  6 11 20 22 14 24 23
  22524086.911    22524086.216    22524089.147   -19745627.331 9 -15375743.876 9
     -2649.376       -2064.451         195.000         195.000
  21484231.292    21484230.463    21484235.643   -21721701.892 9 -16638872.136 9
      1492.692        1163.135         205.000         204.000
  24087620.765    24087620.976    24087624.630    -6841010.448 9  -5306743.792 9
      2989.433        2329.416         161.000         164.000
  25953840.532    25953838.812    25953844.094      746636.463 9    580840.676 9
      -856.334        -667.270         120.000         130.000
  24944984.999    24944985.920    24944990.265    -5098586.104 9  -3932369.505 9
     -3415.972       -2661.786         138.000         142.000
  25540672.776    25540671.343    25540678.600    -2562660.230 9  -1981980.223 9
     -3281.379       -2556.919         127.000         134.000
  20673013.445    20673013.242    20673016.478   -25733850.097 9 -20033795.062 9
      1014.948         790.866         214.000         215.000
  23316451.286    23316449.817    23316454.729    -9810318.228 9  -7625618.667 9
      2918.674        2274.277         165.000         166.000
  23992667.517    23992666.384    23992669.639   -12494870.792 9  -9447322.586 9
     -2491.237       -1941.228         163.000         165.000
  22166042.004    22166042.078    22166045.979   -17426549.808 9 -13566706.744 9
     -1864.353       -1452.737         191.000         192.000
  21332880.345    21332880.349    21332885.389   -21537001.720 9 -16766568.486 9
      2109.036        1643.403         204.000         205.000
  25530704.894    25530708.340    25530661.413    -1146305.796 9    -20326.669 9
      3900.172        3039.095          74.000          74.000
 11  6 30  1  1  0.0000000  0 12 19 32 31 28  3  6 11 20 22 14 24 23
  22539241.228    22539240.396    22539242.986   -19665993.132 9 -15313691.257 9
     -2660.183       -2072.865         195.000         194.000
  21475736.339    21475735.730    21475740.656   -21766342.925 9 -16673657.356 9
      1482.752        1155.390         205.000         205.000
  24070571.245    24070571.761    24070574.613    -6930603.131 9  -5376556.279 9
      2982.701        2324.187         160.000         161.000
  25958761.985    25958762.211    25958766.310      772503.127 9    600996.490 9
      -868.817        -676.999         121.000         131.000
  24964479.055    24964478.810    24964486.620    -4996146.178 9  -3852546.338 9
     -3413.930       -2660.199         138.000         143.000
  25559399.395    25559397.653    25559401.756    -2464263.680 9  -1905307.629 9
     -3278.797       -2554.909         127.000         134.000
  20667264.242    20667264.212    20667267.525   -25764061.049 9 -20057336.065 9
       998.448         778.011         213.000         214.000
  23299801.545    23299800.977    23299805.746    -9897808.145 9  -7693792.601 9
      2913.348        2270.148         165.000         167.000
  24006892.849    24006892.018    24006895.115   -12420117.196 9  -9389073.060 9
     -2493.003       -1942.589         164.000         165.000
  22176724.454    22176724.501    22176728.290   -17370412.477 9 -13522963.378 9
     -1878.766       -1463.971         191.000         191.000
  21320865.645    21320865.580    21320870.756   -21600139.768 9 -16815766.966 9
      2099.493        1635.965         205.000         205.000
  25508438.672    25508444.165    25508428.411    -1263304.755 9   -111494.722 9
      3899.165        3038.314          74.000         110.000
 11  6 30  1  1 30.0000000  0 12 19 32 31 28  3  6 11 20 22 14 24 23
  22554455.037    22554454.305    22554457.036   -19586044.515 9 -15251393.634 9
     -2670.265       -2080.720         195.000         194.000
  21467296.523    21467296.083    21467300.872   -21810694.251 9 -16708216.823 9
      1473.482        1148.167         205.000         205.000
  24053559.385    24053560.030    24053563.553    -7020000.935 9  -5446216.902 9
      2976.573        2319.409         162.000         164.000
  25963752.887    25963753.467    25963757.527      798733.846 9    621435.925 9
      -880.156        -685.833         119.000         128.000
  24983960.568    24983959.797    24983962.351    -4893776.276 9  -3772777.740 9
     -3411.279       -2658.141         137.000         140.000
  25578104.519    25578105.023    25578112.360    -2365952.475 9  -1828701.566 9
     -3275.483       -2552.319         127.000         134.000
  20661608.029    20661607.710    20661611.201   -25793784.702 9 -20080497.349 9
       982.566         765.636         213.000         214.000
  23283181.648    23283181.434    23283186.379    -9985144.989 9  -7761847.265 9
      2908.583        2266.426         165.000         167.000
  24021126.414    24021126.292    24021129.778   -12345317.432 9  -9330787.544 9
     -2494.138       -1943.492         165.000         168.000
  22187487.664    22187487.089    22187491.431   -17313852.108 9 -13478890.367 9
     -1892.454       -1474.642         190.000         191.000
  21308904.094    21308903.783    21308908.809   -21662999.214 9 -16864748.346 9
      2090.583        1629.027         205.000         206.000
  25486180.012    25486184.769    25486175.675    -1380278.609 9   -202644.195 9
      3898.609        3037.880          74.000         130.000
 11  6 30  1  2  0.0000000  0 12 19 32 31 28  3  6 11 20 22 14 24 23
  22569732.675    22569731.588    22569734.294   -19505762.266 9 -15188836.038 9
     -2681.870       -2089.761         195.000         195.000
  21458915.940    21458914.966    21458920.403   -21854734.597 9 -16742533.969 9
      1462.560        1139.656         205.000         205.000
  24036589.258    24036590.164    24036592.968    -7109178.917 9  -5515706.245 9
      2968.625        2313.215         162.000         164.000
  25968817.672    25968815.823    25968825.136      825348.209 9    642174.378 9
      -893.864        -696.511         120.000         130.000
  25003430.841    25003430.932    25003436.333    -4791457.284 9  -3693048.719 9
     -3410.011       -2657.145         140.000         146.000
  25596802.651    25596801.561    25596804.309    -2267707.289 9  -1752146.991 9
     -3273.782       -2550.995         125.000         133.000
  20656048.939    20656048.649    20656051.772   -25822998.489 9 -20103261.332 9
       965.021         751.962         213.000         214.000
  23266595.765    23266595.494    23266599.980   -10072306.669 9  -7829765.440 9
      2902.179        2261.430         165.000         166.000
  24035373.860    24035373.498    24035376.190   -12270450.585 9  -9272449.774 9
     -2496.918       -1945.653         166.000         167.000
  22198334.800    22198334.520    22198338.590   -17256849.689 9 -13434472.902 9
     -1907.695       -1486.519         190.000         190.000
  21296999.363    21296999.163    21297004.772   -21725557.061 9 -16913494.707 9
      2079.955        1620.742         206.000         205.000
  25463929.382    25463933.741    25463901.469    -1497204.125 9    -12826.336 9
      3896.438        3036.188          74.000          74.000
 11  6 30  1  2 30.0000000  0 12 19 32 31 28  3  6 11 20 22 14 24 23
  22585069.126    22585067.706    22585070.203   -19425169.567 9 -15126036.541 9
     -2691.074       -2096.937         195.000         195.000
  21450590.334    21450589.992    21450595.162   -21898484.359 9 -16776624.688 9
      1453.992        1132.977         205.000         205.000
  24019658.678    24019657.979    24019662.450    -7198154.226 9  -5585037.638 9
      2962.933        2308.771         163.000         166.000
  25973952.103    25973950.771    25973956.529      852324.044 9    663194.449 9
      -904.719        -704.973         119.000         130.000
  25022888.410    25022888.491    25022893.973    -4689211.574 9  -3613376.714 9
     -3406.409       -2654.349         140.000         148.000
  25615480.833    25615479.165    25615484.063    -2169550.638 9  -1675661.355 9
     -3269.765       -2547.858         124.000         132.000
  20650583.522    20650583.256    20650586.337   -25851721.213 9 -20125642.679 9
       949.734         740.054         213.000         215.000
  23250038.602    23250037.960    23250042.402   -10159313.100 9  -7897562.650 9
      2898.138        2258.292         165.000         166.000
  24049629.622    24049628.474    24049630.520   -12195537.668 9  -9214076.081 9
     -2497.344       -1945.988         166.000         166.000
  22209262.241    22209261.642    22209265.518   -17199427.671 9 -13389728.477 9
     -1920.572       -1496.553         189.000         190.000
  21285149.053    21285148.625    21285154.083   -21787831.660 9 -16962020.358 9
      2071.589        1614.221         205.000         205.000
  25441685.059    25441689.292    25441688.678    -1614099.425 9   -103914.102 9
      3896.519        3036.261          74.000         129.000
 11  6 30  1  3  0.0000000  0 12 19 32 31 28  3  6 11 20 22 14 24 23
  22600460.381    22600459.615    22600462.465   -19344282.970 9 -15063008.029 9
     -2701.570       -2105.122         194.000         194.000
  21442317.853    21442317.206    21442322.420   -21941958.134 9 -16810500.352 9
      1444.046        1125.224         206.000         206.000
  24002763.422    24002763.579    24002766.639    -7286937.833 9  -5654219.667 9
      2955.636        2303.088         163.000         164.000
  25979147.533    25979149.890    25979154.379      879645.244 9    684483.625 9
      -916.868        -714.443         119.000         130.000
  25042326.491    25042326.910    25042330.325    -4587055.916 9  -3533774.841 9
     -3404.204       -2652.641         135.000         141.000
  25634140.739    25634139.470    25634142.907    -2071498.867 9  -1599257.539 9
     -3267.020       -2545.721         125.000         135.000
  20645208.709    20645208.530    20645211.441   -25879965.991 9 -20147651.601 9
       933.034         727.034         214.000         215.000
  23233509.603    23233508.454    23233513.470   -10246177.604 9  -7965249.258 9
      2892.675        2254.037         165.000         165.000
  24063891.620    24063889.651    24063893.065   -12120593.225 9  -9155677.829 9
     -2499.095       -1947.355         164.000         165.000
  22220266.035    22220265.516    22220269.566   -17141602.116 9 -13344669.609 9
     -1934.693       -1507.546         189.000         189.000
  21273350.047    21273349.735    21273355.033   -21849835.420 9 -17010334.974 9
      2061.768        1606.571         205.000         205.000
  25419443.730    25419448.224    25419444.360    -1730976.965 9   -194987.453 9
      3895.167        3035.191          74.000         142.000
 11  6 30  1  3 30.0000000  0 12 19 32 31 28  3  6 11 20 22 14 24 23
  22615910.457    22615909.457    22615912.280   -19263092.788 9 -14999742.952 9
     -2711.457       -2112.827         193.000         192.000
  21434100.151    21434099.294    21434104.380   -21985143.868 9 -16844151.567 9
      1434.656        1117.919         206.000         206.000
  23985907.636    23985907.811    23985911.349    -7375514.213 9  -5723240.230 9
      2948.999        2297.926         164.000         166.000
  25984416.969    25984414.977    25984425.647      907322.307 9    706050.158 9
      -928.592        -723.582         120.000         129.000
  25061750.099    25061750.633    25061756.711    -4484980.758 9  -3454235.777 9
     -3401.257       -2650.321         137.000         142.000
  25652780.098    25652777.817    25652785.093    -1973541.397 9  -1522927.166 9
     -3263.680       -2543.124         122.000         131.000
  20639927.336    20639927.139    20639930.224   -25907719.393 9 -20169277.637 9
       916.832         714.415         214.000         215.000
  23217008.959    23217008.489    23217012.013   -10332887.429 9  -8032815.351 9
      2887.634        2250.105         165.000         167.000
  24078159.893    24078159.716    24078162.108   -12045605.880 9  -9097246.120 9
     -2500.328       -1948.304         162.000         163.000
  22231348.369    22231347.288    22231351.672   -17083363.150 9 -13299288.610 9
     -1948.228       -1518.091         189.000         188.000
  21261605.343    21261605.033    21261610.343   -21911554.288 9 -17058427.593 9
      2052.421        1599.292         205.000         205.000
  25397207.631    25397208.256    25397211.168    -1847822.013 9   -286035.400 9
      3894.206        3034.442         131.000         146.000
 11  6 30  1  4  0.0000000  0 12 19 32 31 28  3  6 11 20 22 14 24 23
  22631419.385    22631418.706    22631421.855   -19181590.040 9 -14936234.327 9
     -2720.918       -2120.197         192.000         191.000
  21425938.856    21425938.204    21425943.148   -22028030.140 9 -16877569.435 9
      1425.588        1110.847         206.000         206.000
  23969093.585    23969093.851    23969098.135    -7463868.635 9  -5792087.841 9
      2942.390        2292.777         163.000         165.000
  25989751.814    25989750.045    25989759.237      935364.793 9    727901.431 9
      -939.715        -732.246         118.000         126.000
  25081163.222    25081161.250    25081168.809    -4382976.850 9  -3374752.260 9
     -3397.911       -2647.726         137.000         145.000
  25671404.152    25671403.248    25671408.636    -1875669.320 9  -1446663.233 9
     -3259.689       -2540.017         122.000         130.000
  20634741.376    20634741.087    20634744.814   -25934968.833 9 -20190510.970 9
       900.919         702.013         213.000         213.000
  23200540.558    23200539.452    23200544.656   -10419431.076 9  -8100251.941 9
      2883.034        2246.524         165.000         167.000
  24092440.578    24092440.011    24092441.674   -11970564.450 9  -9038772.292 9
     -2501.296       -1949.064         161.000         161.000
  22242511.144    22242511.090    22242515.400   -17024701.814 9 -13253578.486 9
     -1961.374       -1528.332         189.000         189.000
  21249917.530    21249917.253    21249922.397   -21972975.239 9 -17106288.070 9
      2043.377        1592.243         205.000         205.000
  25374983.579    25374982.909    25374985.720    -1964621.374 9   -377047.761 9
      3893.545        3033.937         138.000         144.000
 11  6 30  1  4 30.0000000  0 12 19 32 31 28  3  6 11 20 22 14 24 23
  22646985.553    22646984.525    22646988.503   -19099786.530 9 -14872491.335 9
     -2732.268       -2129.039         191.000         191.000
  21417833.213    21417832.688    21417837.654   -22070626.456 9 -16910761.365 9
      1414.546        1102.245         206.000         206.000
  23952321.672    23952322.604    23952326.546    -7552006.918 9  -5860767.021 9
      2933.760        2286.053         164.000         166.000
  25995156.099    25995159.293    25995160.507      963761.837 9    750028.963 9
      -953.019        -742.610         120.000         130.000
  25100556.885    25100555.651    25100560.044    -4281055.157 9  -3295332.749 9
     -3396.433       -2646.582         134.000         140.000
  25690009.913    25690011.009    25690014.552    -1777893.663 9  -1370474.425 9
     -3257.954       -2538.664         123.000         133.000
  20629650.180    20629650.095    20629653.910   -25961722.153 9 -20211357.707 9
       883.009         688.065         212.000         213.000
  23184101.342    23184100.519    23184104.974   -10505816.699 9  -8167565.392 9
      2876.392        2241.354         165.000         168.000
  24106728.406    24106727.874    24106730.491   -11895478.416 9  -8980263.726 9
     -2504.142       -1951.276         159.000         160.000
  22253752.458    22253751.729    22253756.273   -16965629.668 9 -13207548.244 9
     -1976.395       -1540.052         188.000         188.000
  21238284.720    21238284.571    21238289.413   -22034105.472 9 -17153922.009 9
      2032.316        1583.626         205.000         205.000
  25352764.753    25352764.766    25352766.316    -2081382.206 9   -468030.228 9
      3890.884        3031.862         140.000         145.000
 11  6 30  1  5  0.0000000  0 12 19 32 31 28  3  6 11 20 22 14 24 23
  22662612.895    22662612.214    22662615.935   -19017663.677 9 -14808499.500 9
     -2742.403       -2136.938         190.000         190.000
  21409786.538    21409785.777    21409790.750   -22112911.969 9 -16943711.107 9
      1404.674        1094.549         206.000         205.000
  23935595.437    23935595.779    23935599.102    -7639904.687 9  -5929258.780 9
      2926.202        2280.152         164.000         165.000
  26000632.132    26000630.612    26000635.170      992532.056 9    772447.311 9
      -964.809        -751.793         123.000         132.000
  25119938.932    25119938.644    25119943.958    -4179197.364 9  -3215963.042 9
     -3393.896       -2644.595         136.000         141.000
  25708602.420    25708601.167    25708606.224    -1680195.652 9  -1294346.114 9
     -3254.800       -2536.212         122.000         130.000
  20624658.206    20624657.693    20624661.368   -25987957.289 9 -20231800.663 9
       866.168         674.926         212.000         213.000
  23167697.524    23167696.675    23167700.667   -10592023.093 9  -8234739.173 9
      2870.948        2237.088         166.000         168.000
  24121029.485    24121028.319    24121031.603   -11820327.523 9  -8921704.616 9
     -2505.802       -1952.567         159.000         162.000
  22265075.400    22265074.986    22265078.501   -16906127.405 9 -13161182.858 9
     -1990.307       -1550.894         188.000         188.000
  21226711.431    21226711.228    21226716.368   -22094922.147 9 -17201311.617 9
      2022.307        1575.817         205.000         205.000
  25330555.555    25330556.569    25330558.286    -2198081.671 9   -558964.807 9
      3889.280        3030.608         140.000         145.000
 11  6 30  1  5 30.0000000  0 12 19 32 31 28  3  6 11 20 22 14 24 23
  22678296.392    22678295.616    22678299.022   -18935249.968 9 -14744281.031 9
     -2751.493       -2144.011         190.000         191.000
  21401793.808    21401793.227    21401798.312   -22154912.911 9 -16976439.109 9
      1395.769        1087.610         206.000         205.000
  23918910.866    23918911.356    23918914.585    -7727584.757 9  -5997580.921 9
      2919.451        2274.898         165.000         166.000
  26006172.270    26006171.690    26006178.193     1021647.812 9    795134.912 9
      -975.789        -760.362         122.000         132.000
  25139306.879    25139305.559    25139310.358    -4077431.415 9  -3136664.927 9
     -3390.224       -2641.746         135.000         141.000
  25727172.044    25727173.126    25727179.695    -1582603.106 9  -1218299.895 9
     -3250.713       -2533.031         121.000         129.000
  20619759.797    20619759.712    20619763.038   -26013698.917 9 -20251859.073 9
       850.290         662.560         213.000         214.000
  23151322.040    23151321.655    23151326.068   -10678075.566 9  -8301793.040 9
      2866.331        2233.495         167.000         169.000
  24135337.207    24135335.761    24135339.331   -11745137.987 9  -8863115.366 9
     -2506.494       -1953.109         159.000         161.000
  22276474.616    22276474.461    22276478.321   -16846223.223 9 -13114504.284 9
     -2002.998       -1560.780         188.000         188.000
  21215193.576    21215193.078    21215198.412   -22155449.664 9 -17248475.907 9
      2013.202        1568.728         205.000         205.000
  25308356.464    25308357.461    25308357.412    -2314743.493 9   -649870.120 9
      3888.542        3030.030         139.000         144.000
 11  6 30  1  6  0.0000000  0 12 19 32 31 28  3  6 11 20 22 14 24 23
  22694033.416    22694032.341    22694035.818   -18852553.919 9 -14679842.552 9
     -2761.632       -2151.919         190.000         191.000
  21393854.522    21393853.572    21393858.677   -22196635.647 9 -17008950.333 9
      1385.685        1079.752         205.000         205.000
  23902267.585    23902266.643    23902270.153    -7815049.806 9  -6065735.484 9
      2911.461        2268.669         165.000         167.000
  26011777.331    26011777.163    26011779.748     1051101.159 9    818085.584 9
      -987.904        -769.794         122.000         130.000
  25158651.319    25158652.891    25158656.342    -3975765.457 9  -3057444.655 9
     -3387.629       -2639.709         135.000         141.000
  25745723.646    25745721.945    25745727.281    -1485124.132 9  -1142342.162 9
     -3247.643       -2530.640         124.000         132.000
  20614954.725    20614954.397    20614957.364   -26038951.977 9 -20271536.787 9
       833.186         649.235         213.000         215.000
  23134975.230    23134973.975    23134979.676   -10763979.520 9  -8368731.188 9
      2860.533        2228.979         167.000         169.000
  24149651.530    24149650.818    24149653.644   -11669916.322 9  -8804501.082 9
     -2508.352       -1954.566         159.000         162.000
  22287949.177    22287948.933    22287952.156   -16785925.729 9 -13067519.236 9
     -2016.888       -1571.595         187.000         188.000
  21203729.692    21203729.505    21203734.927   -22215692.199 9 -17295418.137 9
      2002.868        1560.674         206.000         206.000
  25286163.148    25286163.168    25286165.556    -2431371.673 9   -740749.111 9
      3886.640        3028.552         140.000         144.000
 11  6 30  1  6 30.0000000  0 12 19 32 31 28  3  6 11 20 22 14 24 23
  22709830.134    22709829.265    22709831.604   -18769544.482 9 -14615159.885 9
     -2771.736       -2159.789         191.000         191.000
  21385974.004    21385973.488    21385978.507   -22238046.087 9 -17041218.205 9
      1375.605        1071.901         205.000         205.000
  23885670.480    23885670.890    23885674.357    -7902262.634 9  -6133693.514 9
      2903.311        2262.326         164.000         166.000
  26017451.789    26017452.659    26017453.334     1080924.349 9    841324.465 9
      -999.810        -779.074         121.000         130.000
  25177985.712    25177984.766    25177988.378    -3874168.014 9  -2978277.867 9
     -3385.002       -2637.658         136.000         142.000
  25764254.345    25764253.309    25764261.209    -1387726.874 9  -1066448.073 9
     -3244.606       -2528.270         120.000         129.000
  20610248.785    20610248.660    20610251.390   -26063681.485 9 -20290806.535 9
       816.015         635.862         214.000         215.000
  23118662.556    23118662.225    23118666.665   -10849700.623 9  -8435526.841 9
      2854.771        2224.485         168.000         169.000
  24163978.613    24163977.899    24163979.990   -11594629.057 9  -8745835.671 9
     -2510.213       -1956.010         159.000         162.000
  22299504.543    22299503.870    22299507.729   -16725203.074 9 -13020202.885 9
     -2030.735       -1582.386         187.000         187.000
  21192326.903    21192326.510    21192332.130   -22275614.096 9 -17342110.509 9
      1992.455        1552.565         206.000         206.000
  25263982.214    25263981.853    25263984.410    -2547930.227 9   -831573.870 9
      3884.552        3026.914         138.000         142.000
 11  6 30  1  7  0.0000000  0 12 19 32 31 28  3  6 11 20 22 14 24 23
  22725680.633    22725679.676    22725681.928   -18686250.084 9 -14550255.169 9
     -2781.272       -2167.240         191.000         191.000
  21378148.668    21378147.705    21378152.702   -22279170.999 9 -17073263.591 9
      1365.996        1064.406         206.000         206.000
  23869117.938    23869118.623    23869121.120    -7989246.035 9  -6201472.781 9
      2895.508        2256.231         164.000         164.000
  26023191.632    26023189.522    26023198.283     1111089.209 9    864829.577 9
     -1011.204        -787.953         117.000         127.000
  25197301.017    25197299.817    25197304.042    -3772667.261 9  -2899186.378 9
     -3381.852       -2635.202         133.000         138.000
  25782769.865    25782771.609    25782772.380    -1290439.730 9   -990639.856 9
     -3241.018       -2525.475         122.000         130.000
  20605637.635    20605637.558    20605640.636   -26087912.298 9 -20309687.690 9
       799.302         622.830         214.000         215.000
  23102380.689    23102380.177    23102384.550   -10935264.110 9  -8502199.694 9
      2849.418        2220.330         168.000         170.000
  24178311.861    24178311.895    24178314.243   -11519302.933 9  -8687139.958 9
     -2511.584       -1957.089         159.000         161.000
  22311134.797    22311134.969    22311138.378   -16664083.436 9 -12972577.212 9
     -2044.021       -1592.748         187.000         187.000
  21180980.661    21180980.186    21180986.087   -22335239.617 9 -17388571.949 9
      1982.481        1544.794         206.000         207.000
  25241812.330    25241811.376    25241813.722    -2664443.425 9   -922363.338 9
      3882.965        3025.686         138.000         144.000
 11  6 30  1  7 30.0000000  0 12 19 32 31 28  3  6 11 20 22 14 24 23
  22741582.685    22741581.608    22741583.537   -18602687.566 9 -14485141.528 9
     -2789.766       -2173.846         191.000         191.000
  21370374.204    21370373.497    21370378.472   -22320024.850 9 -17105097.763 9
      1357.370        1057.687         207.000         206.000
  23852607.378    23852606.931    23852610.914    -8076011.029 9  -6269081.856 9
      2888.590        2250.853         165.000         167.000
  26028993.719    26028995.452    26028998.065     1141579.191 9    888587.999 9
     -1021.706        -796.141         117.000         126.000
  25216592.396    25216593.667    25216596.830    -3671280.506 9  -2820183.710 9
     -3377.552       -2631.860         134.000         140.000
  25801259.649    25801261.569    25801263.759    -1193279.097 9   -914930.204 9
     -3236.463       -2521.915         115.000         127.000
  20601118.573    20601118.300    20601122.003   -26111658.195 9 -20328190.988 9
       783.505         610.519         213.000         214.000
  23086125.879    23086124.375    23086129.310   -11020684.185 9  -8568760.784 9
      2844.993        2216.870         168.000         169.000
  24192650.291    24192650.109    24192652.588   -11443952.667 9  -8628425.484 9
     -2512.007       -1957.402         158.000         160.000
  22322838.191    22322837.844    22322841.098   -16602583.834 9 -12924655.455 9
     -2056.249       -1602.281         187.000         187.000
  21169688.184    21169687.906    21169693.351   -22394581.646 9 -17434812.481 9
      1973.389        1537.701         207.000         207.000
  25219646.141    25219645.229    25219647.791    -2780923.418 9  -1013126.866 9
      3882.183        3025.078         138.000         144.000
 11  6 30  1  8  0.0000000  0 12 19 32 31 28  3  6 11 20 22 14 24 23
  22757536.386    22757535.413    22757537.953   -18518847.828 9 -14419811.860 9
     -2800.271       -2182.026         191.000         190.000
  21362653.829    21362653.219    21362658.210   -22360595.839 9 -17136711.514 9
      1346.645        1049.334         207.000         207.000
  23836141.324    23836141.099    23836144.542    -8162542.627 9  -6336509.075 9
      2879.421        2243.703         164.000         167.000
  26034861.033    26034861.340    26034864.241     1172404.272 9    912607.555 9
     -1033.839        -805.589         116.000         128.000
  25235867.011    25235866.893    25235872.729    -3569997.558 9  -2741261.941 9
     -3375.337       -2630.125         133.000         139.000
  25819725.991    25819726.553    25819730.367    -1096235.091 9   -839311.468 9
     -3233.581       -2519.663         119.000         130.000
  20596694.616    20596694.428    20596698.190   -26134905.705 9 -20346305.928 9
       765.568         596.543         213.000         214.000
  23069900.324    23069898.907    23069903.427   -11105948.643 9  -8635200.619 9
      2838.473        2211.805         168.000         169.000
  24206996.238    24206995.279    24206998.119   -11368566.790 9  -8569683.236 9
     -2514.482       -1959.327         158.000         160.000
  22334615.024    22334614.428    22334618.513   -16540694.308 9 -12876429.864 9
     -2070.487       -1613.367         187.000         187.000
  21158452.266    21158452.028    21158457.619   -22453626.325 9 -17480821.311 9
      1962.138        1528.934         207.000         207.000
  25197488.711    25197489.308    25197491.317    -2897356.410 9  -1103853.795 9
      3879.263        3022.803         139.000         144.000
 11  6 30  1  8 30.0000000  0 12 19 32 31 28  3  6 11 20 22 14 24 23
  22773548.137    22773547.346    22773549.446   -18434703.838 9 -14354245.127 9
     -2809.112       -2188.923         190.000         190.000
  21354992.813    21354992.041    21354997.074   -22400854.997 9 -17168082.288 9
      1337.522        1042.225         207.000         207.000
  23819725.508    23819726.716    23819728.201    -8248808.041 9  -6403728.865 9
      2871.787        2237.760         165.000         168.000
  26040794.677    26040788.381    26040798.919     1203591.799 9    936909.587 9
     -1044.679        -814.044         113.000         124.000
  25255126.298    25255125.790    25255128.213    -3468791.218 9  -2662399.817 9
     -3371.484       -2627.132         132.000         138.000
  25838176.135    25838174.015    25838177.880     -999279.884 9   -763761.833 9
     -3229.523       -2516.503         117.000         125.000
  20592371.503    20592371.344    20592374.845   -26157624.398 9 -20364008.807 9
       749.200         583.790         213.000         214.000
  23053710.274    23053710.478    23053714.246   -11191027.171 9  -8701495.565 9
      2833.584        2207.996         168.000         171.000
  24221354.390    24221352.841    24221355.693   -11293116.411 9  -8510890.737 9
     -2515.344       -1960.006         157.000         158.000
  22346471.841    22346470.999    22346475.138   -16478388.007 9 -12827879.513 9
     -2083.051       -1623.154         186.000         186.000
  21147279.095    21147278.905    21147284.205   -22512342.199 9 -17526573.939 9
      1952.439        1521.378         207.000         207.000
  25175348.307    25175348.197    25175349.953    -3013711.259 9  -1194519.829 9
      3877.873        3021.718         138.000         143.000
 11  6 30  1  9  0.0000000  0 12 19 32 31 28  3  6 11 20 22 14 24 23
  22789612.049    22789611.307    22789613.555   -18350288.122 9 -14288466.654 9
     -2818.264       -2196.055         190.000         190.000
  21347384.966    21347384.604    21347389.739   -22440832.218 9 -17199233.369 9
      1327.961        1034.781         207.000         207.000
  23803355.304    23803355.054    23803358.296    -8334833.851 9  -6470761.953 9
      2863.563        2231.345         165.000         167.000
  26046794.273    26046791.302    26046796.595     1235110.541 9    961469.687 9
     -1055.940        -822.796         118.000         131.000
  25274364.661    25274364.283    25274367.563    -3367693.845 9  -2583622.603 9
     -3368.011       -2624.431         132.000         138.000
  25856601.930    25856600.895    25856608.155     -902445.414 9   -688306.069 9
     -3225.506       -2513.390         126.000         138.000
  20588143.595    20588143.427    20588146.775   -26179843.000 9 -20381322.004 9
       732.360         570.675         213.000         214.000
  23037549.817    23037549.445    23037554.032   -11275949.064 9  -8767668.455 9
      2828.206        2203.797         169.000         170.000
  24235718.267    24235717.728    24235721.121   -11217631.583 9  -8452071.396 9
     -2516.697       -1961.060         158.000         161.000
  22358401.162    22358400.436    22358404.879   -16415696.835 9 -12779029.263 9
     -2095.993       -1633.239         185.000         185.000
  21136162.869    21136162.896    21136168.075   -22570757.566 9 -17572092.405 9
      1942.228        1513.428         207.000         206.000
  25153216.488    25153214.811    25153217.415    -3130015.390 9  -1285146.377 9
      3876.006        3020.260         141.000         146.000
 11  6 30  1  9 30.0000000  0 12 19 32 31 28  3  6 11 20 22 14 24 23
  22805723.659    22805722.973    22805725.786   -18265618.301 9 -14222490.180 9
     -2826.697       -2202.623         189.000         189.000
  21339828.500    21339827.522    21339832.868   -22480542.745 9 -17230176.629 9
      1319.068        1027.852         207.000         206.000
  23787027.976    23787027.950    23787032.466    -8420631.597 9  -6537617.336 9
      2855.905        2225.378         166.000         168.000
  26052848.235    26052848.747    26052855.933     1266942.999 9    986274.230 9
     -1066.542        -831.074         123.000         132.000
  25293579.696    25293577.346    25293583.503    -3266722.202 9  -2504943.398 9
     -3363.790       -2621.135         132.000         138.000
  25875002.631    25875002.266    25875010.463     -805749.140 9   -612958.313 9
     -3220.837       -2509.742         124.000         132.000
  20584008.173    20584007.772    20584011.320   -26201575.603 9 -20398256.496 9
       716.144         558.040         213.000         215.000
  23021417.436    23021417.123    23021420.943   -11360728.582 9  -8833730.410 9
      2823.397        2200.055         169.000         171.000
  24250086.045    24250085.611    24250088.855   -11142127.637 9  -8393237.149 9
     -2517.280       -1961.521         159.000         161.000
  22370401.299    22370400.732    22370404.017   -16352638.233 9 -12729892.707 9
     -2108.205       -1642.752         185.000         185.000
  21125101.694    21125101.516    21125106.653   -22628885.570 9 -17617386.950 9
      1932.615        1505.936         206.000         206.000
  25131087.906    25131088.221    25131091.934    -3246281.780 9  -1375743.447 9
      3874.779        3019.309         140.000         144.000
 11  6 30  1 10  0.0000000  0 12 19 32 31 28  3  6 11 20 22 14 24 23
  22821889.380    22821888.521    22821891.367   -18180668.432 9 -14156295.477 9
     -2836.525       -2210.279         189.000         189.000
  21332327.890    21332327.198    21332332.138   -22519958.649 9 -17260890.312 9
      1308.746        1019.809         207.000         207.000
  23770750.972    23770751.310    23770753.201    -8506170.207 9  -6604270.793 9
      2846.636        2218.159         166.000         167.000
  26058973.758    26058970.040    26058977.438     1299115.250 9   1011343.533 9
     -1078.340        -840.269         117.000         127.000
  25312773.748    25312773.496    25312778.245    -3165850.451 9  -2426341.996 9
     -3360.981       -2618.941         131.000         137.000
  25893382.908    25893381.462    25893383.524     -709164.045 9   -537697.065 9
     -3217.581       -2507.222         114.000         124.000
  20579970.613    20579970.383    20579973.846   -26222792.934 9 -20414789.483 9
       698.421         544.231         213.000         215.000
  23005316.853    23005315.855    23005320.551   -11445337.174 9  -8899659.168 9
      2817.223        2195.244         170.000         173.000
  24264462.662    24264461.992    24264465.101   -11066577.480 9  -8334366.903 9
     -2519.328       -1963.119         159.000         161.000
  22382475.132    22382474.931    22382478.554   -16289186.222 9 -12680449.591 9
     -2121.814       -1653.359         185.000         185.000
  21114100.483    21114100.198    21114105.521   -22686696.429 9 -17662434.371 9
      1921.492        1497.276         207.000         207.000
  25108978.495    25108978.098    25108982.784    -3362480.507 9  -1466287.950 9
      3871.893        3017.063         142.000         147.000
 11  6 30  1 10 30.0000000  0 12 19 32 31 28  3  6 11 20 22 14 24 23
  22838106.446    22838105.307    22838108.531   -18095445.394 9 -14089887.913 9
     -2845.210       -2217.040         189.000         189.000
  21324882.770    21324882.077    21324887.000   -22559084.214 9 -17291377.759 9
      1299.413        1012.536         207.000         207.000
  23754522.020    23754522.483    23754527.168    -8591450.207 9  -6670722.732 9
      2838.374        2211.719         167.000         170.000
  26065157.286    26065158.019    26065160.239     1331621.364 9   1036673.020 9
     -1089.308        -848.810         119.000         130.000
  25331947.937    25331948.072    25331952.943    -3065084.820 9  -2347823.223 9
     -3357.050       -2615.892         133.000         140.000
  25911738.290    25911743.940    25911743.989     -612696.441 9   -462527.363 9
     -3213.383       -2503.933         104.000         117.000
  20576030.472    20576030.429    20576033.549   -26243497.922 9 -20430923.242 9
       681.682         531.183         213.000         214.000
  22989247.620    22989246.468    22989250.964   -11529778.456 9  -8965457.559 9
      2811.979        2191.145         170.000         171.000
  24278847.488    24278846.648    24278850.296   -10990985.031 9  -8275463.700 9
     -2520.416       -1963.961         159.000         162.000
  22394623.819    22394623.506    22394627.323   -16225346.767 9 -12630704.572 9
     -2134.360       -1663.122         185.000         185.000
  21103159.640    21103159.352    21103164.561   -22744192.043 9 -17707236.144 9
      1911.304        1489.330         207.000         207.000
  25086878.627    25086878.908    25086880.125    -3478613.058 9  -1556780.659 9
      3870.112        3015.664         143.000         147.000
 11  6 30  1 11  0.0000000  0 12 19 32 31 28  3  6 11 20 22 14 24 23
  22854378.752    22854378.047    22854380.969   -18009935.345 9 -14023256.702 9
     -2854.413       -2224.215         188.000         188.000
  21317495.697    21317494.974    21317500.049   -22597903.399 9 -17321626.467 9
      1289.517        1004.816         207.000         207.000
  23738347.529    23738347.737    23738350.504    -8676451.877 9  -6736957.799 9
      2829.363        2204.694         168.000         170.000
  26071410.447    26071408.575    26071413.615     1364475.792 9   1062273.964 9
     -1100.346        -857.411         120.000         130.000
  25351104.393    25351103.878    25351109.790    -2964411.276 9  -2269376.263 9
     -3353.511       -2613.125         133.000         138.000
  25930074.702    25930076.918    25930072.632     -516339.180 9   -387443.801 9
     -3195.672       -2490.148          90.000         112.000
  20572191.320    20572191.098    20572194.363   -26263673.426 9 -20446644.420 9
       664.324         517.653         213.000         214.000
  22973214.394    22973214.115    22973218.584   -11614035.491 9  -9031112.381 9
      2806.130        2186.590         171.000         172.000
  24293243.970    24293242.796    24293245.527   -10915334.396 9  -8216515.155 9
     -2522.012       -1965.201         159.000         162.000
  22406848.282    22406848.167    22406852.039   -16161106.213 9 -12580647.011 9
     -2147.375       -1673.278         185.000         185.000
  21092281.924    21092281.830    21092286.964   -22801354.444 9 -17751778.276 9
      1900.487        1480.895         208.000         208.000
  25064795.691    25064796.048    25064797.832    -3594661.441 9  -1647207.958 9
      3867.506        3013.642         144.000         148.000
 11  6 30  1 11 30.0000000  0 11 19 32 31 28  3 11 20 22 14 24 23
  22870700.256    22870699.200    22870702.585   -17924162.456 9 -13956420.693 9
     -2863.961       -2231.651         187.000         186.000
  21310162.623    21310162.038    21310166.972   -22636437.812 9 -17351653.282 9
      1279.209         996.793         207.000         207.000
  23722222.989    23722222.862    23722226.224    -8761193.602 9  -6802990.302 9
      2819.783        2197.234         170.000         173.000
  26077723.077    26077723.597    26077728.758     1397654.999 9   1088127.891 9
     -1111.875        -866.400         121.000         131.000
  25370241.180    25370241.595    25370245.777    -2863853.487 9  -2191019.476 9
     -3350.449       -2610.737         133.000         140.000
  20568448.974    20568448.643    20568452.027   -26283339.902 9 -20461968.944 9
       646.529         503.792         213.000         215.000
  22957212.122    22957211.386    22957215.667   -11698129.303 9  -9096640.016 9
      2799.871        2181.721         172.000         173.000
  24307646.180    24307645.430    24307648.168   -10839647.560 9  -8157538.413 9
     -2524.009       -1966.761         157.000         157.000
  22419144.651    22419144.678    22419148.317   -16096488.239 9 -12530295.347 9
     -2160.740       -1683.696         185.000         185.000
  21081463.745    21081463.735    21081468.816   -22858203.601 9 -17796076.313 9
      1889.196        1472.103         208.000         208.000
  25042724.479    25042724.052    25042727.959    -3710645.015 9  -1737584.698 9
      3864.495        3011.289         146.000         151.000
 11  6 30  1 12  0.0000000  0 11 19 32 31 28  3 11 20 22 14 24 23
  22887070.619    22887070.140    22887073.380   -17838134.265 9 -13889385.767 9
     -2870.945       -2237.100         186.000         186.000
  21302882.840    21302882.458    21302887.392   -22674692.711 9 -17381462.285 9
      1271.376         990.672         207.000         207.000
  23706144.556    23706146.062    23706148.624    -8845676.907 9  -6868821.444 9
      2812.640        2191.661         170.000         172.000
  26084099.392    26084099.097    26084101.118     1431152.025 9   1114229.496 9
     -1121.119        -873.599         116.000         123.000
  25389354.089    25389353.537    25389357.210    -2763418.543 9  -2112758.510 9
     -3344.906       -2606.426         133.000         139.000
  20564802.561    20564802.284    20564805.575   -26302501.177 9 -20476899.810 9
       631.158         491.810         213.000         215.000
  22941239.838    22941239.104    22941242.777   -11782064.209 9  -9162043.836 9
      2796.011        2178.714         173.000         174.000
  24322055.188    24322054.226    24322057.637   -10763929.705 9  -8098537.497 9
     -2523.556       -1966.414         155.000         157.000
  22431511.527    22431511.599    22431514.808   -16031500.122 9 -12479655.274 9
     -2171.538       -1692.120         185.000         185.000
  21070704.910    21070704.643    21070710.026   -22914742.475 9 -17840132.576 9
      1880.303        1465.163         208.000         209.000
  25020665.473    25020664.669    25020667.757    -3826566.741 9  -1827913.237 9
      3863.846        3010.788         146.000         148.000
 11  6 30  1 12 30.0000000  0 11 19 32 31 28  3 11 20 22 14 24 23
  22903490.317    22903489.456    22903492.141   -17751849.254 9 -13822150.703 9
     -2880.736       -2244.727         185.000         186.000
  21295657.062    21295656.520    21295661.859   -22712664.382 9 -17411050.596 9
      1260.712         982.378         207.000         207.000
  23690117.540    23690117.815    23690123.306    -8929894.760 9  -6934445.754 9
      2802.459        2183.727         170.000         171.000
  26090532.459    26090534.575    26090538.836     1464969.095 9   1140580.500 9
     -1132.944        -882.818         121.000         132.000
  25408442.167    25408442.260    25408448.516    -2663104.354 9  -2034591.585 9
     -3342.107       -2604.231         133.000         139.000
  20561253.230    20561253.107    20561256.364   -26321152.431 9 -20491433.257 9
       612.890         477.581         213.000         214.000
  22925298.463    22925297.586    22925301.693   -11865835.669 9  -9227320.301 9
      2789.347        2173.507         173.000         175.000
  24336470.155    24336469.332    24336472.346   -10688177.393 9  -8039509.737 9
     -2525.985       -1968.293         155.000         157.000
  22443949.157    22443948.650    22443952.815   -15966140.257 9 -12428725.524 9
     -2185.135       -1702.707         185.000         186.000
  21060006.171    21060005.977    21060011.519   -22970965.267 9 -17883942.538 9
      1868.482        1455.965         208.000         209.000
  24998618.244    24998618.886    24998622.051    -3942420.725 9  -1918189.062 9
      3860.378        3008.085         146.000         151.000
 11  6 30  1 13  0.0000000  0 11 19 32 31 28  3 11 20 22 14 24 23
  22919959.252    22919958.720    22919961.578   -17665304.024 9 -13754712.867 9
     -2888.733       -2250.961         186.000         186.000
  21288486.695    21288485.967    21288491.001   -22750346.926 9 -17440413.613 9
      1251.686         975.333         208.000         208.000
  23674144.840    23674144.625    23674148.327    -9013837.654 9  -6999855.795 9
      2793.903        2177.064         171.000         170.000
  26097029.630    26097028.684    26097034.938     1499109.660 9   1167183.590 9
     -1142.892        -890.563         128.000         137.000
  25427510.865    25427509.359    25427516.151    -2562907.081 9  -1956515.808 9
     -3337.559       -2600.694         134.000         141.000
  20557802.431    20557802.080    20557805.421   -26339286.591 9 -20505563.777 9
       596.276         464.629         213.000         214.000
  22909389.912    22909388.899    22909393.431   -11949437.350 9  -9292464.465 9
      2784.315        2169.586         174.000         174.000
  24350891.742    24350891.465    24350895.500   -10612384.844 9  -7980450.630 9
     -2526.675       -1968.833         154.000         155.000
  22456458.060    22456457.929    22456462.179   -15900404.662 9 -12377503.002 9
     -2197.034       -1711.968         185.000         185.000
  21049368.918    21049368.597    21049374.104   -23026864.195 9 -17927500.140 9
      1858.294        1448.019         208.000         209.000
  24976587.609    24976587.243    24976589.636    -4058198.655 9  -2008405.582 9
      3858.380        3006.528         149.000         152.000
 11  6 30  1 13 30.0000000  0 11 19 32 31 28  3 11 20 22 14 24 23
  22936476.127    22936474.754    22936478.248   -17578510.280 9 -13687081.377 9
     -2897.148       -2257.512         186.000         187.000
  21281369.350    21281368.647    21281373.583   -22787749.619 9 -17469558.565 9
      1242.183         967.936         208.000         208.000
  23658221.817    23658221.925    23658226.555    -9097511.488 9  -7065056.186 9
      2784.689        2169.882         171.000         172.000
  26103585.467    26103585.343    26103593.362     1533562.659 9   1194030.138 9
     -1153.525        -898.862         125.000         129.000
  25446552.784    25446552.699    25446556.456    -2462838.167 9  -1878540.077 9
     -3333.338       -2597.410         133.000         140.000
  20554448.476    20554448.187    20554451.558   -26356912.073 9 -20519297.927 9
       579.112         451.260         213.000         214.000
  22893511.463    22893510.488    22893514.560   -12032877.426 9  -9357482.699 9
      2778.712        2165.227         173.000         173.000
  24365320.557    24365319.976    24365323.798   -10536561.650 9  -7921367.650 9
     -2527.842       -1969.742         153.000         156.000
  22469036.485    22469036.234    22469040.248   -15834304.961 9 -12325996.756 9
     -2209.290       -1721.520         184.000         185.000
  21038791.936    21038791.687    21038797.087   -23082446.492 9 -17970811.019 9
      1847.514        1439.628         208.000         208.000
  24954568.714    24954569.075    24954570.877    -4173907.822 9  -2098568.477 9
      3855.885        3004.586         146.000         151.000
 11  6 30  1 14  0.0000000  0 11 19 32 31 28  3 11 20 22 14 24 23
  22953039.138    22953038.145    22953040.651   -17491470.935 9 -13619258.514 9
     -2905.380       -2263.937         186.000         187.000
  21274304.456    21274304.017    21274309.072   -22824873.377 9 -17498486.169 9
      1232.785         960.604         208.000         208.000
  23642352.351    23642352.134    23642354.854    -9180913.420 9  -7130044.728 9
      2775.408        2162.645         172.000         172.000
  26110201.013    26110200.533    26110204.655     1568325.738 9   1221118.315 9
     -1163.879        -906.927         115.000         124.000
  25465571.481    25465570.713    25465574.937    -2362899.917 9  -1800666.114 9
     -3329.052       -2594.059         135.000         142.000
  20551191.600    20551191.368    20551194.481   -26374027.900 9 -20532634.938 9
       562.016         437.932         213.000         215.000
  22877663.936    22877663.514    22877666.807   -12116155.682 9  -9422374.832 9
      2773.196        2160.921         172.000         173.000
  24379755.328    24379754.705    24379757.921   -10460708.294 9  -7862261.161 9
     -2528.980       -1970.630         154.000         157.000
  22481683.574    22481683.033    22481687.628   -15767843.503 9 -12274208.624 9
     -2221.364       -1730.948         184.000         184.000
  21028275.548    21028275.273    21028280.450   -23137710.639 9 -18013873.988 9
      1836.776        1431.240         208.000         209.000
  24932563.385    24932563.165    24932565.818    -4289546.214 9  -2188676.207 9
      3853.421        3002.658         151.000         155.000
 11  6 30  1 14 30.0000000  0 10 19 32 31  3 11 20 22 14 24 23
  22969649.143    22969647.954    22969650.812   -17404185.568 9 -13551243.953 9
     -2913.419       -2270.184         187.000         187.000
  21267293.895    21267293.364    21267298.228   -22861715.055 9 -17527193.970 9
      1223.521         953.401         208.000         208.000
  23626534.782    23626534.297    23626538.339    -9264037.048 9  -7194816.378 9
      2766.284        2155.548         173.000         174.000
  25484563.595    25484561.921    25484567.879    -2263091.228 9  -1722893.112 9
     -3324.648       -2590.636         135.000         142.000
  20548032.368    20548032.028    20548035.291   -26390630.282 9 -20545571.864 9
       544.994         424.673         214.000         215.000
  22861847.463    22861847.873    22861852.709   -12199268.584 9  -9487138.135 9
      2767.860        2156.783         172.000         172.000
  24394196.375    24394195.606    24394198.961   -10384822.261 9  -7803129.198 9
     -2529.891       -1971.344         155.000         158.000
  22494399.688    22494399.349    22494403.295   -15701019.446 9 -12222137.941 9
     -2233.371       -1740.289         184.000         185.000
  21017820.671    21017820.255    21017825.748   -23192651.576 9 -18056685.109 9
      1826.107        1422.942         208.000         209.000
  24910573.350    24910572.026    24910573.589    -4405109.078 9  -2278725.089 9
      3850.952        3000.751         147.000         150.000
 11  6 30  1 15  0.0000000  0 10 19 32 31  3 11 20 22 14 24 23
  22986301.518    22986300.237    22986303.359   -17316677.340 9 -13483055.721 9
     -2920.383       -2275.636         186.000         186.000
  21260332.710    21260332.197    21260337.126   -22898295.395 9 -17555698.125 9
      1215.272         946.965         208.000         208.000
  23610765.974    23610765.837    23610769.415    -9346899.564 9  -7259384.562 9
      2757.959        2149.063         173.000         174.000
  25503527.049    25503527.739    25503531.075    -2163434.999 9  -1645238.895 9
     -3319.070       -2586.287         135.000         141.000
  20544967.041    20544966.788    20544969.949   -26406738.737 9 -20558123.911 9
       528.970         412.183         214.000         215.000
  22846059.943    22846059.450    22846063.863   -12282236.277 9  -9551788.289 9
      2763.442        2153.321         171.000         173.000
  24408639.447    24408638.414    24408641.967   -10308924.364 9  -7743988.001 9
     -2529.852       -1971.310         155.000         158.000
  22507180.741    22507180.200    22507185.006   -15633855.934 9 -12169802.758 9
     -2244.175       -1748.697         183.000         184.000
  21007423.258    21007423.093    21007428.572   -23247288.416 9 -18099259.263 9
      1816.393        1415.374         208.000         209.000
  24888594.030    24888591.692    24888595.325    -4520614.826 9  -2368729.511 9
      3849.501        2999.608         151.000         155.000
 11  6 30  1 15 30.0000000  0 10 19 32 31  3 11 20 22 14 24 23
  23003001.562    23003000.425    23003003.514   -17228916.503 9 -13414670.666 9
     -2930.067       -2283.175         186.000         186.000
  21253427.539    21253426.939    21253431.704   -22934583.007 9 -17583974.187 9
      1204.189         938.330         208.000         207.000
  23595054.012    23595054.413    23595058.027    -9429465.953 9  -7323722.017 9
      2746.693        2140.285         172.000         175.000
  25522468.890    25522469.392    25522471.521    -2063901.164 9  -1567680.046 9
     -3316.318       -2584.139         135.000         140.000
  20542001.765    20542001.658    20542004.939   -26422320.636 9 -20570265.657 9
       510.087         397.468         214.000         216.000
  22830305.456    22830304.858    22830308.745   -12365026.033 9  -9616299.781 9
      2756.164        2147.656         172.000         174.000
  24423091.194    24423089.952    24423093.341   -10232982.976 9  -7684812.905 9
     -2532.628       -1973.473         153.000         156.000
  22520031.534    22520031.472    22520036.341   -15566323.514 9 -12117180.120 9
     -2257.732       -1759.267         183.000         184.000
  20997090.557    20997090.408    20997095.939   -23301587.383 9 -18141570.140 9
      1803.785        1405.541         209.000         209.000
  24866629.783    24866629.855    24866631.417    -4636029.379 9  -2458662.790 9
      3845.073        2996.153         148.000         151.000
 11  6 30  1 16  0.0000000  0 10 19 32 31  3 11 20 22 14 24 23
  23019746.882    23019745.944    23019749.492   -17140917.808 9 -13346100.261 9
     -2937.829       -2289.222         185.000         186.000
  21246575.609    21246575.209    21246580.121   -22970589.536 9 -17612031.213 9
      1194.922         931.110         208.000         208.000
  23579396.809    23579397.674    23579399.917    -9511744.500 9  -7387835.154 9
      2737.189        2132.873         171.000         173.000
  25541383.074    25541382.301    25541387.505    -1964503.726 9  -1490227.505 9
     -3311.593       -2580.468         134.000         141.000
  20539134.916    20539134.638    20539138.033   -26437386.871 9 -20582005.581 9
       493.005         384.161         214.000         216.000
  22814582.457    22814581.632    22814586.716   -12447649.272 9  -9680681.508 9
      2750.711        2143.401         172.000         173.000
  24437548.184    24437547.275    24437551.201   -10157010.410 9  -7625613.516 9
     -2533.571       -1974.219         152.000         155.000
  22532950.595    22532950.340    22532954.930   -15498435.901 9 -12064280.687 9
     -2269.420       -1768.378         184.000         184.000
  20986820.510    20986820.193    20986825.486   -23355558.406 9 -18183625.478 9
      1792.936        1397.097         209.000         209.000
  24844682.691    24844681.500    24844685.635    -4751362.482 9  -2548532.734 9
      3842.485        2994.145         148.000         151.000
 11  6 30  1 16 30.0000000  0 10 19 32 31  3 11 20 22 14 24 23
  23036537.184    23036536.880    23036540.103   -17052680.808 9 -13277344.179 9
     -2943.792       -2293.855         185.000         186.000
  21239777.858    21239777.437    21239782.576   -23006312.337 9 -17639867.158 9
      1187.431         925.274         208.000         209.000
  23563794.683    23563795.679    23563799.039    -9593729.165 9  -7451719.286 9
      2729.229        2126.665         170.000         173.000
  25560272.624    25560271.270    25560275.952    -1865241.770 9  -1412880.581 9
     -3305.065       -2575.362         134.000         139.000
  20536366.704    20536366.657    20536369.710   -26451933.532 9 -20593340.647 9
       477.591         372.155         214.000         216.000
  22798892.886    22798892.038    22798896.561   -12530102.001 9  -9744930.386 9
      2746.950        2140.470         173.000         174.000
  24452010.195    24452009.535    24452013.215   -10081003.704 9  -7566387.526 9
     -2532.752       -1973.571         150.000         151.000
  22545936.535    22545936.446    22545940.388   -15430192.413 9 -12011103.953 9
     -2279.314       -1776.090         183.000         183.000
  20976613.338    20976613.117    20976618.329   -23409196.560 9 -18225421.439 9
      1783.734        1389.930         209.000         209.000
  24822751.792    24822751.344    24822754.918    -4866609.106 9  -2638335.143 9
      3841.495        2993.381         150.000         155.000
 11  6 30  1 17  0.0000000  0 10 19 32 31  3 11 20 22 14 24 23
  23053367.561    23053367.286    23053370.631   -16964238.412 9 -13208428.043 9
     -2952.729       -2300.833         185.000         186.000
  21233027.992    21233027.501    21233032.840   -23041781.866 9 -17667505.745 9
      1176.857         917.034         209.000         208.000
  23548245.288    23548246.280    23548248.397    -9675446.857 9  -7515395.403 9
      2718.151        2118.040         170.000         174.000
  25579129.989    25579130.486    25579133.714    -1766147.642 9  -1335664.427 9
     -3301.547       -2572.634         133.000         139.000
  20533692.023    20533691.793    20533695.033   -26465989.741 9 -20604293.540 9
       459.106         357.752         214.000         216.000
  22783229.287    22783228.015    22783233.632   -12612414.155 9  -9809069.723 9
      2740.133        2135.178         173.000         175.000
  24466475.732    24466474.315    24466478.823   -10004993.473 9  -7507158.832 9
     -2535.007       -1975.320         148.000         151.000
  22558984.292    22558983.672    22558988.465   -15361625.570 9 -11957675.259 9
     -2292.177       -1786.101         183.000         183.000
  20966464.263    20966464.036    20966469.522   -23462530.365 9 -18266980.248 9
      1771.432        1380.345         209.000         209.000
  24800830.996    24800830.718    24800833.282    -4981797.381 9  -2728092.214 9
      3837.313        2990.104         147.000         147.000
 11  6 30  1 17 30.0000000  0 10 19 32 31  3 11 20 22 14 24 23
  23070241.683    23070241.005    23070244.387   -16875566.033 9 -13139332.695 9
     -2959.832       -2306.350         185.000         186.000
  21226331.619    21226331.031    21226336.657   -23076971.454 9 -17694926.186 9
      1168.015         910.140         208.000         208.000
  23532751.027    23532752.055    23532755.667    -9756867.378 9  -7578839.953 9
      2708.733        2110.702         170.000         173.000
  25597959.750    25597959.037    25597962.523    -1667196.260 9  -1258559.533 9
     -3296.294       -2568.541         133.000         140.000
  20531115.662    20531115.438    20531118.536   -26479527.955 9 -20614842.805 9
       442.319         344.661         214.000         215.000
  22767598.056    22767597.215    22767601.026   -12694558.220 9  -9873078.076 9
      2734.998        2131.170         174.000         176.000
  24480945.044    24480945.250    24480949.799    -9928953.147 9  -7447906.654 9
     -2535.424       -1975.663         147.000         151.000
  22572098.785    22572097.909    22572102.432   -15292710.657 9 -11903975.347 9
     -2303.257       -1794.742         182.000         183.000
  20956378.469    20956378.289    20956383.673   -23515531.176 9 -18308279.582 9
      1760.830        1372.073         209.000         209.000
  24778930.099    24778929.596    24778931.790    -5096898.540 9  -2817781.335 9
      3834.968        2988.286         149.000         155.000
 11  6 30  1 18  0.0000000  0 10 19 32 31  3 11 20 22 14 24 23
  23087163.335    23087162.485    23087164.554   -16786645.984 9 -13070044.353 9
     -2967.743       -2312.532         185.000         186.000
  21219692.376    21219691.798    21219697.027   -23111860.777 9 -17722112.659 9
      1158.315         902.585         208.000         208.000
  23517318.199    23517318.597    23517321.464    -9837967.318 9  -7642034.709 9
      2698.326        2102.614         170.000         171.000
  25616765.632    25616767.709    25616769.726    -1568369.244 9  -1181551.527 9
     -3291.847       -2565.071         133.000         138.000
  20528641.942    20528641.755    20528644.977   -26492526.898 9 -20624971.856 9
       424.636         330.890         214.000         216.000
  22752002.587    22752001.795    22752006.292   -12776513.084 9  -9936939.013 9
      2729.002        2126.503         175.000         176.000
  24495425.767    24495425.094    24495427.777    -9852862.518 9  -7388615.278 9
     -2536.837       -1976.758         149.000         153.000
  22585282.283    22585282.049    22585285.986   -15223429.438 9 -11849989.994 9
     -2315.120       -1803.990         182.000         184.000
  20946360.299    20946360.254    20946365.736   -23568176.380 9 -18349301.818 9
      1749.236        1363.045         209.000         210.000
  24757045.319    24757045.566    24757048.248    -5211889.827 9  -2907384.810 9
      3831.554        2985.625         146.000         148.000
 11  6 30  1 18 30.0000000  0 10 19 32 31  3 11 20 22 14 24 23
  23104125.993    23104124.297    23104127.060   -16697507.494 9 -13000585.801 9
     -2975.559       -2318.609         185.000         185.000
  21213105.386    21213104.609    21213109.836   -23146476.816 9 -17749086.188 9
      1148.668         895.070         208.000         208.000
  23501941.399    23501943.475    23501945.640    -9918769.427 9  -7704997.364 9
      2687.758        2094.379         170.000         173.000
  25635542.168    25635540.635    25635546.296    -1469695.370 9  -1104662.855 9
     -3287.195       -2561.453         131.000         137.000
  20526266.033    20526265.890    20526269.165   -26505012.433 9 -20634700.845 9
       406.977         317.126         214.000         216.000
  22736438.604    22736437.178    22736441.618   -12858304.783 9 -10000672.797 9
      2723.047        2121.854         177.000         178.000
  24509910.070    24509908.809    24509911.427    -9776748.636 9  -7329305.789 9
     -2538.156       -1977.781         151.000         154.000
  22598530.654    22598530.141    22598534.104   -15153811.270 9 -11795742.080 9
     -2326.854       -1813.132         182.000         183.000
  20936405.410    20936405.039    20936410.567   -23620490.843 9 -18390066.335 9
      1737.628        1353.998         209.000         210.000
  24735181.162    24735179.326    24735184.051    -5326795.784 9  -2996921.823 9
      3828.121        2982.951         148.000         153.000
 11  6 30  1 19  0.0000000  0 10 19 32 31  3 11 20 22 14 24 23
  23121130.214    23121128.863    23121130.681   -16608150.370 9 -12930956.889 9
     -2981.323       -2323.102         185.000         186.000
  21206570.368    21206569.851    21206574.942   -23180817.720 9 -17775845.339 9
      1140.955         889.061         208.000         209.000
  23486622.876    23486623.870    23486627.314    -9999268.630 9  -7767724.003 9
      2679.033        2087.554         171.000         172.000
  25654290.304    25654289.882    25654292.737    -1371174.409 9  -1027893.285 9
     -3280.702       -2556.388         132.000         139.000
  20523988.616    20523988.258    20523991.501   -26516981.673 9 -20644027.528 9
       391.202         304.839         214.000         215.000
  22720905.232    22720904.209    22720909.077   -12939930.859 9 -10064277.543 9
      2718.925        2118.637         178.000         179.000
  24524397.990    24524398.201    24524400.449    -9700609.447 9  -7269976.573 9
     -2537.512       -1977.277         152.000         155.000
  22611841.933    22611841.857    22611846.355   -15083856.235 9 -11741231.685 9
     -2336.597       -1820.711         182.000         182.000
  20926513.935    20926513.770    20926519.213   -23672470.733 9 -18430570.143 9
      1727.926        1346.439         210.000         210.000
  24713329.947    24713331.837    24713334.176    -5441612.670 9  -3086389.362 9
      3826.548        2981.732         147.000         150.000
 11  6 30  1 19 30.0000000  0 10 19 32 31  3 11 20 22 14 24 23
  23138172.357    23138170.825    23138174.116   -16518590.161 9 -12861169.709 9
     -2989.056       -2329.140         184.000         184.000
  21200085.618    21200085.161    21200090.236   -23214895.550 9 -17802399.491 9
      1131.197         881.454         209.000         209.000
  23471360.973    23471361.213    23471364.191   -10079473.929 9  -7830221.660 9
      2668.200        2079.131         170.000         173.000
  25673006.039    25673005.936    25673009.411    -1272820.057 9   -951253.586 9
     -3275.985       -2552.713         130.000         137.000
  20521806.879    20521806.586    20521810.145   -26528445.533 9 -20652960.408 9
       373.341         290.915         214.000         215.000
  22705401.708    22705400.942    22705406.092   -13021402.037 9 -10127761.572 9
      2712.772        2113.854         178.000         179.000
  24538889.703    24538888.940    24538891.011    -9624457.195 9  -7210637.190 9
     -2538.980       -1978.428         152.000         154.000
  22625215.794    22625215.142    22625219.891   -15013578.487 9 -11686469.816 9
     -2348.324       -1829.867         182.000         183.000
  20916684.242    20916684.017    20916689.408   -23724126.253 9 -18470821.191 9
      1716.041        1337.178         210.000         210.000
  24691497.120    24691496.459    24691500.796    -5556349.978 9  -3175795.022 9
      3822.857        2978.840         149.000         154.000
 11  6 30  1 20  0.0000000  0 10 19 32 31  3 11 20 22 14 24 23
  23155254.680    23155254.196    23155256.558   -16428821.514 9 -12791220.114 9
     -2995.495       -2334.143         184.000         184.000
  21193652.737    21193651.846    21193657.130   -23248702.930 9 -17828742.905 9
      1122.655         874.799         209.000         209.000
  23456155.657    23456157.360    23456159.134   -10159374.235 9  -7892481.637 9
      2658.423        2071.493         171.000         172.000
  25691691.298    25691690.649    25691698.407    -1174627.214 9   -874739.731 9
     -3270.242       -2548.236         132.000         139.000
  20519723.040    20519722.707    20519726.097   -26539395.880 9 -20661493.153 9
       356.673         277.927         214.000         215.000
  22689928.908    22689928.685    22689932.725   -13102710.651 9 -10191118.926 9
      2707.807        2109.969         178.000         178.000
  24553385.239    24553384.656    24553387.203    -9548284.750 9  -7151282.073 9
     -2539.164       -1978.571         152.000         155.000
  22638651.851    22638650.746    22638655.568   -14942972.573 9 -11631452.239 9
     -2358.742       -1837.986         182.000         182.000
  20906917.962    20906917.696    20906923.368   -23775448.100 9 -18510812.239 9
      1705.374        1328.861         211.000         211.000
  24669679.524    24669680.302    24669682.980    -5670998.268 9  -3265131.233 9
      3820.334        2976.883         150.000         153.000
 11  6 30  1 20 30.0000000  0 10 19 32 31  3 11 20 22 14 24 23
  23172376.665    23172376.794    23172378.993   -16338840.492 9 -12721105.039 9
     -3003.305       -2340.239         183.000         184.000
  21187272.039    21187271.227    21187276.183   -23282233.820 9 -17854870.871 9
      1112.640         866.994         209.000         209.000
  23441011.823    23441012.302    23441015.358   -10238960.043 9  -7954496.550 9
      2647.084        2062.680         171.000         173.000
  25710348.514    25710346.516    25710351.652    -1076591.295 9   -798348.214 9
     -3265.759       -2544.738         130.000         136.000
  20517738.314    20517738.111    20517741.420   -26549825.462 9 -20669620.113 9
       338.493         263.763         214.000         215.000
  22674488.178    22674487.533    22674492.552   -13183849.788 9 -10254344.211 9
      2701.310        2104.914         177.000         177.000
  24567884.920    24567883.889    24567886.961    -9472085.745 9  -7091906.265 9
     -2540.875       -1979.892         152.000         156.000
  22652150.492    22652150.267    22652154.652   -14872034.569 9 -11576175.889 9
     -2370.582       -1847.211         181.000         181.000
  20897216.872    20897216.760    20897222.204   -23826428.089 9 -18550536.903 9
      1693.142        1319.331         211.000         211.000
  24647882.421    24647881.478    24647884.782    -5785549.079 9  -3354391.545 9
      3816.275        2973.722         151.000         154.000
 11  6 30  1 21  0.0000000  0 10 19 32 31  3 11 20 22 14 24 23
  23189540.113    23189539.043    23189541.819   -16248651.578 9 -12650827.957 9
     -3009.452       -2345.014         183.000         183.000
  21180943.260    21180942.634    21180947.636   -23315490.271 9 -17880784.976 9
      1104.255         860.462         209.000         209.000
  23425927.074    23425928.131    23425931.203   -10318229.987 9  -8016265.331 9
      2637.307        2055.047         172.000         174.000
  25728973.020    25728972.307    25728978.740     -978716.004 9   -722081.786 9
     -3259.484       -2539.854         127.000         134.000
  20515852.412    20515852.173    20515855.583   -26559735.801 9 -20677342.459 9
       321.953         250.874         214.000         215.000
  22659079.974    22659078.771    22659083.806   -13264820.649 9 -10317438.360 9
      2696.476        2101.157         176.000         178.000
  24582390.111    24582389.471    24582392.950    -9395862.664 9  -7032511.689 9
     -2540.857       -1979.873         152.000         156.000
  22665711.964    22665712.180    22665716.139   -14800768.749 9 -11520644.101 9
     -2380.681       -1855.084         180.000         180.000
  20887580.785    20887580.580    20887586.072   -23877066.041 9 -18589995.041 9
      1682.483        1311.031         211.000         211.000
  24626102.920    24626102.798    24626105.449    -5900002.344 9  -3443575.779 9
      3813.764        2971.761         153.000         157.000
 11  6 30  1 21 30.0000000  0 10 19 32 31  3 11 20 22 14 24 23
  23206741.600    23206739.996    23206743.143   -16158259.471 9 -12580392.539 9
     -3017.849       -2351.570         183.000         184.000
  21174666.450    21174665.730    21174670.957   -23348474.509 9 -17906486.970 9
      1093.512         852.088         209.000         209.000
  23410902.514    23410904.078    23410907.057   -10397182.898 9  -8077787.086 9
      2624.990        2045.459         172.000         175.000
  25747567.230    25747566.628    25747571.107     -881005.144 9   -645943.560 9
     -3255.689       -2536.894         127.000         134.000
  20514065.227    20514065.036    20514068.522   -26569127.847 9 -20684660.937 9
       302.982         236.090         214.000         215.000
  22643703.672    22643703.869    22643707.592   -13345624.613 9 -10380402.454 9
      2689.243        2095.523         177.000         178.000
  24596899.125    24596897.967    24596901.562    -9319617.617 9  -6973099.989 9
     -2543.318       -1981.804         153.000         157.000
  22679335.233    22679335.205    22679339.197   -14729179.314 9 -11464860.139 9
     -2393.150       -1864.777         180.000         180.000
  20878009.630    20878009.545    20878014.817   -23927362.162 9 -18629186.820 9
      1669.374        1300.813         211.000         211.000
  24604341.637    24604340.831    24604342.658    -6014358.064 9  -3532684.068 9
      3808.760        2967.873         154.000         155.000
 11  6 30  1 22  0.0000000  0 10 19 32 31  3 11 20 22 14 24 23
  23223984.961    23223983.688    23223987.138   -16067641.633 9 -12509781.244 9
     -3024.025       -2356.382         183.000         183.000
  21168446.077    21168445.405    21168450.657   -23381161.757 9 -17931957.534 9
      1084.905         845.375         209.000         209.000
  23395944.389    23395945.904    23395947.549   -10475790.359 9  -8139039.663 9
      2614.755        2037.464         173.000         176.000
  25766133.669    25766131.671    25766137.185     -783435.890 9   -569915.557 9
     -3249.589       -2532.147         126.000         134.000
  20512381.719    20512381.467    20512384.610   -26577975.906 9 -20691555.533 9
       286.162         222.980         214.000         215.000
  22628364.629    22628363.500    22628367.846   -13426235.743 9 -10443216.293 9
      2684.105        2091.507         179.000         180.000
  24611417.175    24611415.986    24611418.829    -9243325.476 9  -6913651.591 9
     -2543.548       -1981.984         153.000         156.000
  22693023.996    22693023.676    22693027.548   -14657243.149 9 -11408805.995 9
     -2403.317       -1872.721         180.000         181.000
  20868508.749    20868508.729    20868513.940   -23977289.682 9 -18668091.380 9
      1658.352        1292.218         211.000         211.000
  24582604.349    24582604.005    24582606.180    -6128589.002 9  -3621695.086 9
      3805.873        2965.612         155.000         159.000
 11  6 30  1 22 30.0000000  0 10 19 32 31  3 11 20 22 14 24 23
  23241266.635    23241265.384    23241268.723   -15976825.198 9 -12439015.201 9
     -3030.771       -2361.636         183.000         183.000
  21162277.674    21162277.306    21162282.451   -23413576.615 9 -17957215.861 9
      1075.677         838.191         209.000         209.000
  23381048.051    23381049.305    23381051.206   -10554074.068 9  -8200039.957 9
      2603.718        2028.881         173.000         176.000
  25784669.285    25784669.266    25784672.787     -686034.769 9   -494018.604 9
     -3244.140       -2527.897         128.000         134.000
  20510796.953    20510796.824    20510799.865   -26586303.959 9 -20698044.929 9
       268.635         209.326         214.000         215.000
  22613056.803    22613056.210    22613059.879   -13506678.193 9 -10505898.709 9
      2678.308        2086.993         180.000         181.000
  24625939.197    24625938.340    24625941.973    -9167011.395 9  -6854186.104 9
     -2544.409       -1982.652         153.000         156.000
  22706773.908    22706774.224    22706777.759   -14584987.616 9 -11352503.002 9
     -2414.057       -1881.085         180.000         181.000
  20859073.910    20859073.587    20859078.844   -24026871.304 9 -18706726.409 9
      1646.661        1283.115         211.000         212.000
  24560886.208    24560885.592    24560887.868    -6242717.403 9  -3710626.215 9
      3802.282        2962.821         155.000         156.000
 11  6 30  1 23  0.0000000  0 10 19 32 31  3 11 20 22 14 24 23
  23258584.040    23258582.833    23258585.559   -15885823.709 9 -12368104.939 9
     -3035.465       -2365.288         183.000         183.000
  21156159.438    21156158.884    21156163.940   -23445730.491 9 -17982270.829 9
      1068.429         832.539         209.000         210.000
  23366211.439    23366212.686    23366213.801   -10632041.516 9  -8260793.807 9
      2594.576        2021.750         174.000         177.000
  25803167.827    25803166.123    25803173.964     -588814.315 9   -418262.463 9
     -3236.685       -2522.094         125.000         132.000
  20509309.085    20509308.754    20509312.255   -26594122.028 9 -20704136.936 9
       253.065         197.189         214.000         215.000
  22597779.129    22597779.050    22597782.369   -13586962.329 9 -10568457.780 9
      2674.469        2083.992         181.000         182.000
  24640462.497    24640462.903    24640465.226    -9090686.515 9  -6794712.198 9
     -2543.397       -1981.864         153.000         155.000
  22720582.474    22720581.891    22720586.718   -14512425.646 9 -11295961.221 9
     -2422.841       -1887.922         180.000         180.000
  20849702.980    20849702.730    20849707.966   -24076116.148 9 -18745099.018 9
      1636.819        1275.441         212.000         212.000
  24539186.022    24539186.016    24539188.590    -6356752.638 9  -3799484.792 9
      3800.577        2961.495         156.000         160.000
 11  6 30  1 23 30.0000000  0 11 19 32 31  3 17 11 20 22 14 24 23
  23275932.216    23275931.040    23275934.214   -15794659.740 9 -12297068.082 9
     -3041.461       -2369.959         182.000         181.000
  21150086.649    21150086.013    21150090.999   -23477643.103 9 -18007137.792 9
      1059.777         825.806         209.000         209.000
  23351431.940    23351432.729    23351434.391   -10709709.501 9  -8321314.324 9
      2583.928        2013.464         176.000         177.000
  25821631.392    25821631.460    25821634.022     -491796.411 9   -342664.057 9
     -3230.602       -2517.353         120.000         127.000
  25429938.778    25429938.811    25429943.975     -272367.799 9   -199292.918 9
      3175.563        2474.467         133.000         148.000
  20507914.746    20507914.597    20507917.843   -26601449.244 9 -20709846.460 9
       236.089         183.975         214.000         215.000
  22582528.261    22582527.758    22582531.522   -13667107.212 9 -10630908.332 9
      2669.221        2079.914         182.000         182.000
  24654985.710    24654985.116    24654987.285    -9014370.606 9  -6735245.318 9
     -2543.653       -1982.067         153.000         156.000
  22734444.010    22734444.110    22734448.036   -14439579.311 9 -11239197.859 9
     -2432.884       -1895.748         179.000         180.000
  20840392.594    20840392.171    20840397.541   -24125042.230 9 -18783223.238 9
      1625.565        1266.680         212.000         211.000
  24517499.977    24517499.869    24517500.951    -6470712.107 9  -3888284.287 9
      3797.384        2959.012         157.000         159.000
 11  6 30  1 24  0.0000000  0 11 19 32 31  3 17 11 20 22 14 24 23
  23293312.427    23293310.708    23293314.501   -15703324.240 9 -12225897.562 9
     -3047.453       -2374.647         181.000         182.000
  21144061.713    21144061.223    21144066.231   -23509303.504 9 -18031808.227 9
      1051.063         819.009         209.000         209.000
  23336712.304    23336712.553    23336715.107   -10787063.027 9  -8381589.792 9
      2573.077        2004.985         176.000         178.000
  25840055.651    25840058.146    25840058.410     -394971.185 9   -267215.780 9
     -3224.377       -2512.509         124.000         132.000
  25411839.234    25411837.718    25411842.846     -367487.940 9   -273412.501 9
      3165.917        2466.947         143.000         149.000
  20506616.184    20506615.869    20506619.120   -26608273.870 9 -20715164.356 9
       218.980         170.634         214.000         216.000
  22567305.587    22567304.521    22567308.969   -13747100.888 9 -10693241.062 9
      2663.823        2075.701         182.000         182.000
  24669507.737    24669507.792    24669511.613    -8938052.841 9  -6675777.007 9
     -2544.085       -1982.410         152.000         155.000
  22748362.672    22748362.309    22748366.322   -14366439.805 9 -11182206.052 9
     -2442.979       -1903.608         179.000         179.000
  20831145.203    20831144.964    20831150.214   -24173636.323 9 -18821088.765 9
      1614.123        1257.762         211.000         211.000
  24495830.844    24495830.520    24495832.291    -6584582.505 9  -3977014.405 9
      3794.041        2956.381         156.000         158.000
 11  6 30  1 24 30.0000000  0 11 19 32 31  3 17 11 20 22 14 24 23
  23310727.966    23310726.809    23310729.693   -15611802.412 9 -12154581.862 9
     -3054.337       -2379.989         179.000         179.000
  21138088.208    21138087.543    21138092.676   -23540694.440 9 -18056268.689 9
      1041.314         811.420         209.000         209.000
  23322055.694    23322055.403    23322059.801   -10864081.660 9  -8441604.311 9
      2561.100        1995.659         176.000         178.000
  25858447.610    25858445.018    25858453.649     -298323.548 9   -191905.936 9
     -3219.220       -2508.491         121.000         129.000
  25393793.694    25393792.772    25393798.067     -462312.901 9   -347302.075 9
      3155.308        2458.683         145.000         149.000
  20505416.666    20505416.307    20505419.529   -26614577.726 9 -20720076.460 9
       200.893         156.543         214.000         216.000
  22552115.490    22552114.565    22552118.805   -13826925.662 9 -10755442.178 9
      2657.452        2070.750         181.000         181.000
  24684034.858    24684035.024    24684037.726    -8861715.729 9  -6616293.588 9
     -2545.451       -1983.467         153.000         155.000
  22762339.213    22762338.967    22762341.772   -14292991.857 9 -11124973.897 9
     -2453.941       -1912.161         179.000         179.000
  20821964.831    20821964.683    20821970.180   -24221879.270 9 -18858680.673 9
      1601.667        1248.058         212.000         212.000
  24474182.445    24474182.681    24474183.331    -6698344.443 9  -4065659.953 9
      3789.661        2952.966         157.000         158.000
 11  6 30  1 25  0.0000000  0 11 19 32 31  3 17 11 20 22 14 24 23
  23328185.822    23328184.723    23328187.643   -15520061.860 9 -12083095.727 9
     -3062.335       -2386.240         178.000         178.000
  21132172.409    21132171.790    21132176.972   -23571781.391 9 -18080492.269 9
      1030.480         802.968         209.000         209.000
  23307470.479    23307469.667    23307474.508   -10940727.531 9  -8501328.362 9
      2547.915        1985.378         176.000         176.000
  25876811.158    25876810.503    25876813.161     -201821.184 9   -116709.254 9
     -3215.069       -2505.240         121.000         130.000
  25375811.508    25375812.580    25375816.822     -556805.204 9   -420932.374 9
      3143.485        2449.462         145.000         149.000
  20504322.764    20504322.593    20504325.805   -26620325.586 9 -20724555.309 9
       181.611         141.511         214.000         216.000
  22536964.186    22536963.448    22536967.313   -13906545.667 9 -10817483.732 9
      2649.907        2064.866         180.000         181.000
  24698571.837    24698571.351    24698574.118    -8785325.114 9  -6556768.504 9
     -2547.932       -1985.401         152.000         155.000
  22776381.166    22776380.656    22776384.567   -14219202.977 9 -11067476.090 9
     -2465.999       -1921.557         179.000         180.000
  20812858.421    20812858.145    20812863.813   -24269734.578 9 -18895970.525 9
      1587.995        1237.397         212.000         212.000
  24452561.685    24452561.610    24452563.907    -6811961.062 9  -4154192.312 9
      3784.118        2948.648         156.000         160.000
 11  6 30  1 25 30.0000000  0 11 19 32 31  3 17 11 20 22 14 24 23
  23345683.292    23345682.712    23345685.133   -15428112.853 9 -12011447.161 9
     -3067.793       -2390.476         177.000         177.000
  21126313.125    21126312.603    21126317.791   -23602571.822 9 -18104484.810 9
      1022.000         796.360         209.000         209.000
  23292955.008    23292954.695    23292958.481   -11017004.970 9  -8560765.322 9
      2537.005        1976.893         175.000         175.000
  25895146.667    25895150.401    25895150.288     -105472.541 9    -41632.378 9
     -3208.455       -2500.092         122.000         129.000
  25357892.893    25357893.152    25357897.691     -650969.261 9   -494306.999 9
      3133.905        2442.005         148.000         152.000
  20503333.842    20503333.583    20503336.693   -26625523.675 9 -20728605.777 9
       164.712         128.344         215.000         216.000
  22521850.483    22521849.677    22521853.560   -13985967.808 9 -10879371.110 9
      2644.710        2060.819         179.000         181.000
  24713117.343    24713116.641    24713120.061    -8708887.929 9  -6497207.125 9
     -2548.049       -1985.496         153.000         155.000
  22790485.301    22790485.701    22790489.280   -14145082.593 9 -11009719.962 9
     -2475.565       -1929.019         178.000         179.000
  20803824.529    20803824.190    20803829.735   -24317207.395 9 -18932962.331 9
      1576.623        1228.536         212.000         212.000
  24430968.732    24430967.064    24430970.822    -6925437.688 9  -4242615.608 9
      3780.814        2946.102         157.000         160.000
 11  6 30  1 26  0.0000000  0 11 19 32 31  3 17 11 20 22 14 24 23
  23363210.043    23363209.087    23363212.214   -15336009.740 9 -11939678.522 9
     -3072.085       -2393.828         177.000         176.000
  21120500.917    21120500.104    21120505.044   -23633117.761 9 -18128286.841 9
      1014.680         790.660         210.000         210.000
  23278499.989    23278499.088    23278504.023   -11092962.114 9  -8619952.690 9
      2527.047        1969.134         175.000         174.000
  25913439.815    25913438.780    25913443.816       -9331.116 9     33283.046 9
     -3200.702       -2494.047         120.000         129.000
  25340027.015    25340027.155    25340032.462     -744854.259 9   -567464.131 9
      3125.352        2435.343         148.000         151.000
  20502439.525    20502439.268    20502442.233   -26630223.425 9 -20732267.926 9
       148.891         116.025         215.000         216.000
  22506764.921    22506764.506    22506768.969   -14065242.977 9 -10941143.963 9
      2640.577        2057.592         179.000         180.000
  24727661.651    24727661.080    24727664.942    -8632456.498 9  -6437650.220 9
     -2547.020       -1984.685         153.000         156.000
  22804642.618    22804642.162    22804646.097   -14070684.956 9 -10951747.787 9
     -2483.953       -1935.534         178.000         178.000
  20794853.883    20794853.647    20794859.121   -24364347.815 9 -18969695.118 9
      1566.314        1220.502         212.000         212.000
  24409390.716    24409390.555    24409392.571    -7038823.874 9  -4330968.416 9
      3778.522        2944.322         156.000         157.000
 11  6 30  1 26 30.0000000  0 11 19 32 31  3 17 11 20 22 14 24 23
  23380766.068    23380764.419    23380767.891   -15243753.091 9 -11867790.238 9
     -3078.402       -2398.747         176.000         177.000
  21114734.995    21114734.438    21114739.325   -23663417.485 9 -18151897.005 9
      1005.218         783.282         210.000         211.000
  23264107.328    23264108.480    23264111.559   -11168594.146 9  -8678886.725 9
      2514.916        1959.669         174.000         174.000
  25931696.122    25931696.224    25931703.020       86603.611 9    108037.437 9
     -3195.154       -2489.732         116.000         125.000
  25322215.736    25322216.230    25322219.764     -838455.715 9   -640400.314 9
      3114.608        2426.967         149.000         153.000
  20501640.269    20501640.123    20501643.025   -26634422.686 9 -20735540.081 9
       130.946         102.031         215.000         216.000
  22491707.786    22491707.339    22491712.444   -14144368.982 9 -11002800.570 9
      2634.370        2052.744         179.000         180.000
  24742205.559    24742204.288    24742208.006    -8556029.241 9  -6378096.567 9
     -2548.192       -1985.605         153.000         155.000
  22818852.482    22818852.487    22818856.034   -13996010.422 9 -10893559.866 9
     -2494.375       -1943.673         177.000         178.000
  20785947.398    20785947.309    20785952.605   -24411152.327 9 -19006166.163 9
      1553.849        1210.789         212.000         212.000
  24387832.191    24387831.049    24387834.314    -7152115.838 9  -4419247.842 9
      3774.135        2940.876         156.000         158.000
 11  6 30  1 27  0.0000000  0 11 19 32 31  3 17 11 20 22 14 24 23
  23398361.604    23398360.207    23398362.846   -15151289.536 9 -11795740.726 9
     -3085.157       -2404.015         176.000         177.000
  21109026.607    21109026.028    21109030.887   -23693415.236 9 -18175271.870 9
       995.338         775.585         211.000         211.000
  23249788.012    23249789.119    23249793.046   -11243842.402 9  -8737521.703 9
      2502.200        1949.768         174.000         175.000
  25949922.706    25949922.493    25949923.117      182384.647 9    182672.008 9
     -3189.758       -2485.524         123.000         133.000
  25304468.807    25304469.603    25304473.563     -931714.996 9   -713069.845 9
      3103.340        2418.191         147.000         150.000
  20500947.202    20500947.166    20500950.119   -26638064.766 9 -20738378.073 9
       112.507          87.668         214.000         216.000
  22476689.699    22476689.220    22476692.878   -14223288.979 9 -11064296.671 9
      2627.659        2047.526         178.000         179.000
  24756759.428    24756758.366    24756760.808    -8479550.068 9  -6318502.489 9
     -2549.774       -1986.838         152.000         153.000
  22833125.646    22833125.642    22833128.836   -13921005.365 9 -10835114.382 9
     -2505.257       -1952.139         177.000         177.000
  20777115.892    20777115.794    20777120.827   -24457563.176 9 -19042330.458 9
      1540.840        1200.657         212.000         212.000
  24366303.186    24366302.630    24366304.391    -7265255.540 9  -4507408.602 9
      3769.143        2937.001         155.000         156.000
 11  6 30  1 27 30.0000000  0 11 19 32 31  3 17 11 20 22 14 24 23
  23415988.022    23415987.410    23415989.286   -15058660.170 9 -11723562.013 9
     -3089.938       -2407.745         176.000         177.000
  21103368.088    21103367.485    21103372.653   -23723150.097 9 -18198441.893 9
       987.203         769.249         211.000         211.000
  23235535.973    23235537.297    23235539.908   -11318741.841 9  -8795884.903 9
      2491.187        1941.196         174.000         177.000
  25968112.647    25968110.001    25968114.835      277972.089 9    257155.807 9
     -3182.758       -2480.074         120.000         127.000
  25286780.467    25286781.306    25286785.190    -1024668.100 9   -785500.826 9
      3093.728        2410.704         144.000         148.000
  20500353.084    20500352.843    20500355.969   -26641187.739 9 -20740811.563 9
        95.846          74.689         215.000         216.000
  22461703.357    22461702.835    22461707.189   -14302041.517 9 -11125662.266 9
      2622.688        2043.642         178.000         179.000
  24771315.382    24771314.465    24771318.520    -8403057.739 9  -6258898.162 9
     -2549.536       -1986.651         149.000         152.000
  22847454.177    22847452.681    22847457.874   -13845710.576 9 -10776443.135 9
     -2514.223       -1959.144         176.000         177.000
  20768352.024    20768351.660    20768357.029   -24503617.030 9 -19078216.578 9
      1529.569        1191.874         212.000         212.000
  24344794.320    24344795.908    24344796.994    -7378279.541 9  -4595479.225 9
      3765.938        2934.488         155.000         158.000
 11  6 30  1 28  0.0000000  0 11 19 32 31  3 17 11 20 22 14 24 23
  23433642.332    23433641.440    23433644.478   -14965883.344 9 -11651268.388 9
     -3094.884       -2411.612         176.000         177.000
  21097756.588    21097756.112    21097761.302   -23752637.686 9 -18221419.226 9
       978.913         762.784         211.000         211.000
  23221347.332    23221348.111    23221351.247   -11393305.257 9  -8853986.270 9
      2479.923        1932.403         174.000         178.000
  25986261.289    25986260.802    25986268.770      373348.362 9    331474.966 9
     -3175.592       -2474.499         117.000         128.000
  25269147.580    25269148.216    25269152.645    -1117327.845 9   -857703.202 9
      3083.920        2403.054         146.000         150.000
  20499854.558    20499854.214    20499857.589   -26643806.796 9 -20742852.383 9
        78.998          61.551         215.000         216.000
  22446746.766    22446745.813    22446750.170   -14380641.202 9 -11186908.757 9
      2617.499        2039.600         179.000         180.000
  24785870.634    24785871.087    24785872.884    -8326568.450 9  -6199296.184 9
     -2549.494       -1986.617         148.000         151.000
  22861834.489    22861833.201    22861837.580   -13770144.117 9 -10717560.203 9
     -2523.255       -1966.179         176.000         176.000
  20759653.541    20759653.185    20759658.626   -24549327.953 9 -19113835.480 9
      1518.065        1182.904         212.000         212.000
  24323306.409    24323306.418    24323309.657    -7491201.703 9  -4683470.471 9
      3762.528        2931.821         154.000         156.000
 11  6 30  1 28 30.0000000  0 11 19 32 31  3 17 11 20 22 14 24 23
  23451330.164    23451328.735    23451331.811   -14872937.158 9 -11578842.795 9
     -3102.439       -2417.470         176.000         177.000
  21092196.825    21092196.301    21092201.435   -23781853.799 9 -18244185.026 9
       967.907         754.214         211.000         211.000
  23207228.530    23207228.377    23207232.116   -11467504.899 9  -8911804.179 9
      2465.820        1921.408         175.000         178.000
  26004374.958    26004372.403    26004382.536      468536.407 9    405647.529 9
     -3171.190       -2471.056         120.000         130.000
  25251575.770    25251576.645    25251580.129    -1209666.877 9   -929655.664 9
      3071.046        2393.027         144.000         147.000
  20499456.609    20499456.482    20499459.961   -26645897.009 9 -20744481.122 9
        59.437          46.308         215.000         216.000
  22431823.730    22431822.731    22431827.499   -14459062.776 9 -11248016.465 9
      2609.645        2033.487         180.000         181.000
  24800430.042    24800429.272    24800432.117    -8250057.542 9  -6139677.362 9
     -2552.093       -1988.650         147.000         150.000
  22876269.318    22876269.465    22876272.997   -13694283.815 9 -10658448.302 9
     -2534.985       -1975.301         176.000         177.000
  20751025.558    20751025.243    20751030.309   -24594669.410 9 -19149166.488 9
      1503.769        1171.767         212.000         212.000
  24301843.398    24301842.471    24301844.506    -7603995.577 9  -4771361.777 9
      3756.230        2926.918         154.000         155.000
 11  6 30  1 29  0.0000000  0 11 19 32 31  3 17 11 20 22 14 24 23
  23469056.429    23469055.138    23469058.057   -14779783.445 9 -11506255.494 9
     -3107.070       -2421.085         176.000         177.000
  21086696.698    21086695.756    21086701.421   -23810757.873 9 -18266707.683 9
       959.768         747.877         211.000         211.000
  23193185.438    23193184.978    23193189.204   -11541297.170 9  -8969304.639 9
      2454.407        1912.527         176.000         176.000
  26022461.074    26022459.980    26022463.331      563575.230 9    479703.764 9
     -3163.925       -2465.394         122.000         131.000
  25234073.263    25234073.853    25234078.838    -1301641.624 9  -1001324.264 9
      3061.250        2385.387         144.000         149.000
  20499167.645    20499167.262    20499170.604   -26647417.054 9 -20745665.573 9
        42.655          33.242         214.000         216.000
  22416941.976    22416941.554    22416946.153   -14537264.919 9 -11308953.191 9
      2604.569        2029.531         181.000         183.000
  24815002.039    24815001.344    24815003.566    -8173484.567 9  -6080010.182 9
     -2551.950       -1988.527         147.000         150.000
  22890769.166    22890768.760    22890772.083   -13618091.099 9 -10599077.370 9
     -2543.809       -1982.177         175.000         176.000
  20742475.665    20742475.272    20742480.596   -24639598.903 9 -19184176.485 9
      1492.234        1162.784         213.000         213.000
  24280410.526    24280411.217    24280413.307    -7716617.912 9  -4859119.390 9
      3752.727        2924.211         154.000         156.000
 11  6 30  1 29 30.0000000  0 11 19 32 31  3 17 11 20 22 14 24 23
  23486807.592    23486807.252    23486809.560   -14686497.902 9 -11433565.477 9
     -3112.437       -2425.276         176.000         177.000
  21081241.545    21081241.101    21081246.320   -23839423.381 9 -18289044.430 9
       950.775         740.859         211.000         210.000
  23179206.973    23179205.561    23179210.862   -11614751.789 9  -9026541.987 9
      2441.992        1902.832         176.000         177.000
  26040502.132    26040501.955    26040508.034      658390.114 9    553585.545 9
     -3157.560       -2460.440         125.000         135.000
  25216628.189    25216627.570    25216633.444    -1393323.067 9  -1072764.341 9
      3050.374        2376.917         145.000         149.000
  20498972.861    20498972.651    20498975.939   -26648439.662 9 -20746462.409 9
        25.017          19.488         214.000         216.000
  22402089.083    22402088.033    22402092.770   -14615320.176 9 -11369775.460 9
      2598.622        2024.894         181.000         183.000
  24829569.237    24829570.677    24829572.797    -8096922.776 9  -6020351.706 9
     -2552.540       -1988.995         145.000         149.000
  22905316.190    22905316.038    22905320.132   -13541641.488 9 -10539506.262 9
     -2553.369       -1989.632         175.000         175.000
  20733990.444    20733990.262    20733995.564   -24684188.062 9 -19218921.282 9
      1479.823        1153.103         213.000         213.000
  24258999.345    24258998.314    24259001.149    -7829140.247 9  -4946799.084 9
      3748.292        2920.744         156.000         159.000
 11  6 30  1 30  0.0000000  0 11 19 32 31  3 17 11 20 22 14 24 23
  23504589.401    23504588.173    23504591.026   -14593059.078 9 -11360756.017 9
     -3117.731       -2429.381         176.000         178.000
  21075836.965    21075836.408    21075841.573   -23867826.388 9 -18311176.643 9
       941.853         733.912         211.000         211.000
  23165297.834    23165298.224    23165301.391   -11687841.678 9  -9083495.122 9
      2429.638        1893.221         177.000         177.000
  26058507.728    26058509.275    26058514.764      753003.406 9    627310.197 9
     -3150.985       -2455.317         117.000         124.000
  25199241.195    25199241.363    25199246.837    -1484684.221 9  -1143954.836 9
      3039.468        2368.413         143.000         147.000
  20498877.596    20498877.137    20498880.743   -26648940.311 9 -20746852.526 9
         7.431           5.791         214.000         216.000
  22387268.454    22387267.662    22387271.803   -14693203.903 9 -11430464.063 9
      2592.688        2020.275         182.000         182.000
  24844142.107    24844140.232    24844145.223    -8020348.304 9  -5960683.385 9
     -2553.245       -1989.541         145.000         148.000
  22919917.575    22919916.688    22919920.794   -13464913.050 9 -10479717.882 9
     -2562.795       -1996.978         174.000         175.000
  20725575.155    20725574.919    20725580.436   -24728410.775 9 -19253380.537 9
      1467.390        1143.423         212.000         212.000
  24237610.482    24237611.246    24237612.514    -7941536.003 9  -5034380.160 9
      3743.826        2917.258         156.000         159.000
 11  6 30  1 30 30.0000000  0 11 19 32 31  3 17 11 20 22 14 24 23
  23522398.978    23522398.666    23522401.123   -14499463.273 9 -11287824.242 9
     -3122.550       -2433.146         176.000         177.000
  21070482.984    21070482.490    21070487.902   -23895960.992 9 -18333099.704 9
       933.277         727.233         211.000         211.000
  23151460.683    23151462.413    23151464.669   -11760557.603 9  -9140156.869 9
      2417.475        1883.745         178.000         180.000
  26076473.721    26076480.745    26076489.417      847419.508 9    700881.220 9
     -3144.098       -2449.942         100.000         115.000
  25181918.980    25181919.383    25181924.028    -1575716.105 9  -1214888.721 9
      3028.814        2360.114         145.000         150.000
  20498882.681    20498882.590    20498885.966   -26648912.262 9 -20746830.668 9
        -9.826          -7.652         214.000         215.000
  22372481.643    22372480.574    22372484.266   -14770909.265 9 -11491013.693 9
      2587.108        2015.938         182.000         183.000
  24858717.254    24858716.504    24858720.290    -7943755.375 9  -5901000.671 9
     -2553.583       -1989.802         143.000         147.000
  22934571.879    22934571.849    22934576.401   -13387901.808 9 -10419709.139 9
     -2571.840       -2004.029         173.000         175.000
  20717231.205    20717230.996    20717236.220   -24772259.272 9 -19287548.199 9
      1455.268        1133.984         213.000         213.000
  24216247.917    24216248.129    24216249.981    -8053797.391 9  -5121856.551 9
      3739.692        2914.037         157.000         159.000
 11  6 30  1 31  0.0000000  0 10 19 32 31 17 11 20 22 14 24 23
  23540238.153    23540237.123    23540239.441   -14405720.506 9 -11214777.947 9
     -3128.187       -2437.548         176.000         177.000
  21065178.969    21065178.245    21065183.556   -23923834.611 9 -18354819.393 9
       923.733         719.798         211.000         211.000
  23137694.771    23137696.423    23137697.354   -11832903.863 9  -9196530.572 9
      2404.260        1873.450         179.000         182.000
  25164658.185    25164658.297    25164663.238    -1666423.497 9  -1285569.793 9
      3017.148        2351.021         145.000         148.000
  20498987.362    20498987.171    20498990.562   -26648362.791 9 -20746402.517 9
       -28.033         -21.845         214.000         215.000
  22357727.242    22357726.409    22357730.585   -14848443.025 9 -11551429.604 9
      2580.532        2010.805         182.000         183.000
  24873295.321    24873294.467    24873297.153    -7867151.376 9  -5841309.317 9
     -2554.763       -1990.720         143.000         148.000
  22949278.636    22949278.074    22949282.603   -13310617.398 9 -10359487.548 9
     -2581.730       -2011.746         173.000         174.000
  20708957.342    20708957.009    20708962.302   -24815739.083 9 -19321428.573 9
      1442.114        1123.728         213.000         213.000
  24194910.584    24194909.489    24194912.859    -8165929.663 9  -5209232.337 9
      3734.527        2910.008         157.000         161.000
 11  6 30  1 31 30.0000000  0 10 19 32 31 17 11 20 22 14 24 23
  23558107.996    23558106.553    23558110.099   -14311812.748 9 -11141603.081 9
     -3131.921       -2440.451         177.000         178.000
  21059928.263    21059927.691    21059932.684   -23951426.936 9 -18376319.899 9
       916.136         713.872         211.000         211.000
  23124003.265    23124003.606    23124005.185   -11904856.886 9  -9252597.875 9
      2392.914        1864.609         180.000         182.000
  25147463.795    25147464.039    25147468.975    -1756783.294 9  -1355979.964 9
      3007.241        2343.300         144.000         148.000
  20499195.019    20499194.879    20499198.331   -26647270.748 9 -20745551.579 9
       -44.395         -34.593         214.000         215.000
  22343009.770    22343009.092    22343012.925   -14925783.803 9 -11611695.140 9
      2575.849        2007.147         183.000         183.000
  24887877.649    24887877.421    24887879.753    -7790515.755 9  -5781593.316 9
     -2553.973       -1990.102         144.000         149.000
  22964041.022    22964040.838    22964044.435   -13233041.820 9 -10299039.070 9
     -2589.632       -2017.877         173.000         174.000
  20700757.859    20700757.483    20700762.898   -24858827.597 9 -19355004.039 9
      1430.794        1114.909         213.000         213.000
  24173600.842    24173600.557    24173602.583    -8277910.067 9  -5296489.787 9
      3731.183        2907.405         158.000         160.000
 11  6 30  1 32  0.0000000  0 10 19 32 31 17 11 20 22 14 24 23
  23576000.014    23575999.705    23576002.886   -14217789.276 9 -11068338.072 9
     -3137.366       -2444.697         177.000         177.000
  21054722.370    21054721.662    21054726.606   -23978784.917 9 -18397637.794 9
       906.678         706.496         211.000         212.000
  23110377.661    23110376.398    23110380.031   -11976460.197 9  -9308392.659 9
      2379.551        1854.198         181.000         181.000
  25130325.929    25130325.923    25130330.746    -1846839.226 9  -1426153.392 9
      2995.470        2334.127         145.000         149.000
  20499497.456    20499497.268    20499500.787   -26645682.303 9 -20744313.836 9
       -62.564         -48.751         214.000         216.000
  22328319.563    22328319.623    22328324.286   -15002977.502 9 -11671846.046 9
      2569.329        2002.077         183.000         183.000
  24902458.848    24902457.964    24902461.107    -7713895.367 9  -5721889.184 9
     -2555.139       -1991.014         145.000         150.000
  22978848.776    22978849.527    22978853.812   -13155223.805 9 -10238401.688 9
     -2599.340       -2025.450         173.000         174.000
  20692624.052    20692623.856    20692629.309   -24901569.617 9 -19388309.514 9
      1417.587        1104.613         212.000         212.000
  24152311.977    24152311.702    24152313.256    -8389783.500 9  -5383663.874 9
      3725.967        2903.353         158.000         160.000
 11  6 30  1 32 30.0000000  0 10 19 32 31 17 11 20 22 14 24 23
  23593926.991    23593925.904    23593928.654   -14123585.498 9 -10994932.526 9
     -3143.068       -2449.137         177.000         177.000
  21049573.597    21049573.121    21049578.216   -24005841.593 9 -18418720.911 9
       896.910         698.885         212.000         212.000
  23096830.885    23096829.460    23096834.517   -12047643.436 9  -9363860.092 9
      2365.795        1843.470         181.000         180.000
  25113258.816    25113258.939    25113265.360    -1936521.506 9  -1496035.635 9
      2983.126        2324.513         144.000         147.000
  20499907.147    20499906.939    20499910.323   -26643529.829 9 -20742636.581 9
       -81.109         -63.206         214.000         216.000
  22313671.378    22313671.216    22313675.001   -15079956.574 9 -11731829.712 9
      2562.425        1996.686         183.000         183.000
  24917049.344    24917048.719    24917051.429    -7637222.648 9  -5662144.278 9
     -2556.555       -1992.113         147.000         151.000
  22993716.079    22993715.730    22993720.079   -13077098.470 9 -10177524.820 9
     -2609.226       -2033.154         172.000         173.000
  20684569.614    20684569.388    20684574.691   -24943896.580 9 -19421291.560 9
      1403.996        1094.020         212.000         213.000
  24131057.066    24131056.339    24131059.548    -8501480.726 9  -5470700.637 9
      3720.326        2898.952         159.000         161.000
 11  6 30  1 33  0.0000000  0 10 19 32 31 17 11 20 22 14 24 23
  23611880.392    23611879.390    23611882.215   -14029238.775 9 -10921415.613 9
     -3147.645       -2452.708         176.000         177.000
  21044475.532    21044474.986    21044479.964   -24032631.886 9 -18439596.469 9
       888.207         692.107         212.000         212.000
  23083358.252    23083359.786    23083362.885   -12118438.636 9  -9419025.184 9
      2352.961        1833.479         181.000         182.000
  25096260.455    25096259.429    25096264.606    -2025862.185 9  -1565651.729 9
      2971.947        2315.796         144.000         148.000
  20500417.422    20500417.185    20500420.538   -26640848.179 9 -20740546.996 9
       -98.598         -76.835         214.000         215.000
  22299057.673    22299056.159    22299060.565   -15156755.257 9 -11791672.825 9
      2556.579        1992.142         183.000         184.000
  24931642.429    24931642.537    24931645.843    -7560533.211 9  -5602386.373 9
     -2556.992       -1992.460         147.000         150.000
  23008634.065    23008633.460    23008637.782   -12998702.788 9 -10116437.293 9
     -2618.018       -2040.018         172.000         171.000
  20676587.806    20676587.611    20676592.840   -24985841.554 9 -19453975.961 9
      1391.393        1084.199         212.000         212.000
  24109829.433    24109827.890    24109830.539    -8613034.512 9  -5557625.642 9
      3715.676        2895.335         159.000         161.000
